LocationID,Name,Address,City,State,ZipCode,Phone,Chain,Latitude,Longitude
01100002,Kroger - Irmo Station - St Andrews Rd,7467 Saint Andrews Rd,Irmo,SC,29063,8037320423,KROGER,34.085839,-81.186288
01100012,Kroger - Forest Acres,3403 Forest Dr,Columbia,SC,29204,8037380225,KROGER,34.0199676,-80.9912105
01100016,Kroger - Galleria Shopping Center,9610 N Kings Hwy,Myrtle Beach,SC,29572,8434499671,KROGER,33.7770368,-78.7931153
01100020,Kroger - Ocean Plaza,781 Main St,North Myrtle Beach,SC,29582,8432499950,KROGER,33.8265946,-78.6799374
01100025,Kroger - Garden City Beach,2939 S Highway 17,Murrells Inlet,SC,29576,8432357101,KROGER,33.5837914,-79.0125762
01100026,Kroger - Carolina Forest Plaza,3735 Renee Dr,Myrtle Beach,SC,29579,8432737102,KROGER,33.7609408,-78.9663925
01100210,Kroger - Georgetown,4498 Chamblee Dunwoody Rd,Dunwoody,GA,30338,7704518350,KROGER,33.9226262,-84.3159392
01100212,Kroger - Northlake Lavista,3959 Lavista Rd Ste A,Tucker,GA,30084,7709396304,KROGER,33.843398,-84.2558491
01100214,Kroger - Newton Plaza,3139 Highway 278 NE,Covington,GA,30014,7707870724,KROGER,33.6044583,-83.8589644
01100218,Kroger - Clairmont,3855 Buford Hwy NE,Brookhaven,GA,30329,4046336220,KROGER,33.8554106,-84.3135811
01100247,Kroger - Shannon Crossing,4550 Jonesboro Rd,Union City,GA,30291,7709690269,KROGER,33.5657545,-84.5367834
01100255,Kroger - College Station,2301 College Station Rd,Athens,GA,30605,7063538543,KROGER,33.9216927,-83.3438949
01100257,Kroger - Parkway Station,115 Russell Pkwy,Warner Robins,GA,31088,4789229047,KROGER,32.5922284,-83.6255568
01100260,Kroger - Corner Village,300 N Dean Rd,Auburn,AL,36830,3348211325,KROGER,32.6105645,-85.463195
01100265,Kroger - Whitfield Square,1205 N Glenwood Ave,Dalton,GA,30721,7062267998,KROGER,34.792096,-84.9637409
01100291,Kroger - Cherokee Commons,6199 Highway 92,Acworth,GA,30102,7709249102,KROGER,34.0904699,-84.585295
01100294,Kroger - Merchants Village,4115 Columbia Rd,Martinez,GA,30907,7068639635,KROGER,33.5095909,-82.1081989
01100298,Kroger - Ansley Mall,1700 Monroe Dr NE,Atlanta,GA,30324,4048720782,KROGER,33.80054,-84.3730262
01100303,Kroger - Belevedere Citi-Center,3479 Memorial Dr,Decatur,GA,30032,4042865780,KROGER,33.7520033,-84.2693406
01100310,Kroger - Lanett,1401 S Gilmer Ave,Lanett,AL,36863,3346442100,KROGER,32.855689,-85.190821
01100315,Kroger - Banks Crossing,134 Banks Xing,Fayetteville,GA,30214,7704617602,KROGER,33.4690874,-84.4488101
01100318,Kroger - Toco Hills,2205 Lavista Rd NE,Atlanta,GA,30329,4046338694,KROGER,33.815719,-84.31316
01100319,Kroger - Merchants Square,7125 Highway 85,Riverdale,GA,30274,7709962508,KROGER,33.5602882,-84.4160801
01100320,Kroger - Conyers Square,1745 Highway 138 SE STE A,Conyers,GA,30013,7709228753,KROGER,33.6438111,-84.0170068
01100324,Kroger - Orchard Park,2090 Dunwoody Club Dr,Atlanta,GA,30350,7703919035,KROGER,33.9608906,-84.3011506
01100328,Kroger - Baconsfield,660 North Ave,Macon,GA,31211,4787466300,KROGER,32.8507908,-83.6259874
01100335,Kroger - Parkaire Landing,4880 Lower Roswell Rd,Marietta,GA,30068,7709718801,KROGER,33.9651166,-84.4089591
01100339,Kroger - Commerce Square,203 Commerce Ave Ste A,LaGrange,GA,30241,7068836167,KROGER,33.0507213,-85.0217752
01100344,Kroger - Haynes Market,3000 Old Alabama Rd,Alpharetta,GA,30022,7707517384,KROGER,34.0230965,-84.2715981
01100346,Kroger - Howell Mill Square,1715 Howell Mill Rd NW,Atlanta,GA,30318,4043557886,KROGER,33.8018234,-84.4124991
01100350,Kroger - Fountain Oaks,4920 Roswell Rd,Atlanta,GA,30342,4048433080,KROGER,33.8898191,-84.3834045
01100352,Kroger - Lawrenceville Town Center,455 Grayson Hwy,Lawrenceville,GA,30046,7709621063,KROGER,33.9386887,-83.9825989
01100354,Kroger - Crowes Crossing,1232 S Hairston Rd,Stone Mountain,GA,30088,4042926009,KROGER,33.7593679,-84.1950041
01100355,Kroger - Wesleyan Station,4650 Forsyth Rd,Macon,GA,31210,4784747410,KROGER,32.87326,-83.709775
01100356,Kroger - Village Green,3600 Dallas Hwy SW,Marietta,GA,30064,7704240040,KROGER,33.9553155,-84.6562344
01100363,Kroger - Merchants Crossing,48 Bullsboro Dr,Newnan,GA,30263,7702514791,KROGER,33.3849519,-84.7877185
01100364,Kroger - Metropolitan Citi-Center,2685 Metropolitan Pkwy SW,Atlanta,GA,30315,4047617409,KROGER,33.682837,-84.409058
01100365,Kroger - Chastain,3595 Canton Rd,Marietta,GA,30066,7709247930,KROGER,34.0386966,-84.5309268
01100366,Kroger - Park Plaza,3251 Highway 5,Douglasville,GA,30135,7709201880,KROGER,33.719279,-84.7661173
01100367,Kroger Marketplace - Carrollton Crossing,1355 S Park St,Carrollton,GA,30117,7708328932,KROGER,33.5531758,-85.0751547
01100369,Kroger - Stockbridge Village,3618 Highway 138 SE,Stockbridge,GA,30281,7704745377,KROGER,33.5502535,-84.2714308
01100373,Kroger - Crossroads South,8059 Tara Blvd,Jonesboro,GA,30236,7704785700,KROGER,33.5342457,-84.3664788
01100374,Kroger - River Exhange,2100 Riverside Pkwy,Lawrenceville,GA,30043,7709620890,KROGER,33.965837,-84.033938
01100375,Kroger - Wesley Corners,2385 Wesley Chapel Rd,Decatur,GA,30035,7709870633,KROGER,33.7183148,-84.2174249
01100376,Kroger - Westfork,630 Thornton Rd,Lithia Springs,GA,30122,7707326999,KROGER,33.7898073,-84.6200042
01100378,Kroger - North Park,220 Tom Hill Sr Blvd,Macon,GA,31210,4784747582,KROGER,32.8986106,-83.6914209
01100381,Kroger - Peachtree Hill,3455 Peachtree Industrial Blvd,Duluth,GA,30096,7704767914,KROGER,34.0058429,-84.1730832
01100388,Kroger - Braelinn Village,564 Crosstown Dr,Peachtree City,GA,30269,7704873602,KROGER,33.3769347,-84.5645978
01100389,Kroger - Singleton Square,6050 Singleton Rd,Norcross,GA,30093,7702423340,KROGER,33.9033629,-84.1996802
01100390,Kroger - Saddlebrook,10945 State Bridge Rd,Alpharetta,GA,30022,7707513000,KROGER,34.0496921,-84.2228106
01100391,Kroger - Douglas Commons,8501 Hospital Dr,Douglasville,GA,30134,7709494091,KROGER,33.749269,-84.7323434
01100393,Kroger - Calhoun Place,136 W Belmont Dr,Calhoun,GA,30701,7066254303,KROGER,34.4780605,-84.9375148
01100394,Kroger - Five Forks Crossing,3050 Five Forks Trickum Rd SW,Lilburn,GA,30047,7709789264,KROGER,33.8844257,-84.0602468
01100397,Kroger - Butler Creek,3330 Cobb Pkwy NW Ste 200,Acworth,GA,30101,7709758652,KROGER,34.036344,-84.6770134
01100400,Kroger - Bridge Pointe,4321 Hartley Bridge Rd,Macon,GA,31216,4787881010,KROGER,32.7450367,-83.7135919
01100402,Kroger - Canton,4045 Marietta Hwy,Canton,GA,30114,7703453644,KROGER,34.193141,-84.5076025
01100405,Kroger - McDonough Crossing,301 Jonesboro Rd,McDonough,GA,30253,7709544370,KROGER,33.4526773,-84.1695762
01100407,Kroger - Perry Market,1367 Sam Nunn Blvd,Perry,GA,31069,4789888474,KROGER,32.4673377,-83.7414495
01100408,Kroger - Woodmont Village,8020 Cumming Hwy,Canton,GA,30115,7703458451,KROGER,34.2524835,-84.3580832
01100411,Kroger - Eisenhower Crossing,4628 Presidential Pkwy,Macon,GA,31206,4784053910,KROGER,32.8191186,-83.7109451
01100412,Kroger - Cascade-Citi Center,590 Cascade Ave SW,Atlanta,GA,30310,4047561140,KROGER,33.7374549,-84.433074
01100413,Kroger - Lovejoy Village,10375 Tara Blvd,Jonesboro,GA,30236,7704776535,KROGER,33.4721875,-84.3384717
01100414,Kroger - Evans Crossing,4355 Washington Rd,Evans,GA,30809,7068684510,KROGER,33.5417455,-82.1321558
01100415,Kroger - Crabapple,12460 Crabapple Rd,Alpharetta,GA,30004,7707402050,KROGER,34.0857179,-84.3567523
01100416,Kroger - Clearwater Crossing,7380 Spout Springs Rd,Flowery Branch,GA,30542,7709655640,KROGER,34.1074935,-83.8756151
01100418,Kroger - Downtown Savannah,311 E Gwinnett St,Savannah,GA,31401,9122312260,KROGER,32.065872,-81.09263
01100419,Kroger - Woodstock Crossing,12050 Highway 92 Ste 112,Woodstock,GA,30188,7705912890,KROGER,34.0864683,-84.4861092
01100420,Kroger - Thomas Crossroads,3150 Highway 34 E,Newnan,GA,30265,7702543030,KROGER,33.4094181,-84.6795806
01100422,Kroger - Kedron Village,1017 N Peachtree Pkwy,Peachtree City,GA,30269,7704867200,KROGER,33.4392281,-84.5884266
01100424,Kroger - Russell Ridge,1475 Buford Dr,Lawrenceville,GA,30043,7708226580,KROGER,34.0049769,-83.9862692
01100425,Kroger - Plantation Centre,5928 Zebulon Rd,Macon,GA,31210,4787574150,KROGER,32.8779858,-83.7602033
01100426,Kroger - Suwanee,400 Peachtree Industrial Blvd,Suwanee,GA,30024,7709324377,KROGER,34.06363,-84.0725
01100427,Kroger - Fairview Oaks,101 Fairview Rd,Ellenwood,GA,30294,7703897080,KROGER,33.6193236,-84.2390944
01100428,Kroger - Alps Village,191 Alps Rd,Athens,GA,30606,7065430209,KROGER,33.9472876,-83.4080077
01100429,Kroger - Cedar Plaza,730 N Main St,Cedartown,GA,30125,7707495090,KROGER,34.0248526,-85.2484462
01100430,Kroger - Toonigh Village,5341 Old Highway 5,Woodstock,GA,30188,7709242557,KROGER,34.141211,-84.503869
01100431,Kroger - Mansell Village,570 E Crossville Rd,Roswell,GA,30075,7706402070,KROGER,34.0401035,-84.3454897
01100432,Kroger - Greens Corner,2325 Bethelview Rd,Cumming,GA,30040,7708881020,KROGER,34.2384495,-84.1931129
01100434,Kroger - Johns Creek,3651 Peachtree Pkwy,Suwanee,GA,30024,7704182377,KROGER,34.0695235,-84.1655638
01100435,Kroger - Epps Village,1720 Epps Bridge Pkwy,Athens,GA,30606,7065838900,KROGER,33.9131649,-83.4463404
01100436,Kroger - Newton Crossroads,5341 Highway 20 S,Covington,GA,30016,7707884000,KROGER,33.5493011,-84.0152021
01100437,Kroger - Thompson Bridge Commons,3630 Thompson Bridge Rd,Gainesville,GA,30506,7705321143,KROGER,34.3735899,-83.8698354
01100438,Kroger - Beaver Ruin Village,4155 Lawrenceville Hwy NW,Lilburn,GA,30047,7707173050,KROGER,33.9047568,-84.1211716
01100439,Kroger - Waycross,1606 Memorial Dr,Waycross,GA,31501,9122872270,KROGER,31.2066164,-82.3391679
01100440,Kroger - Cruse Crossing,950 Herrington Rd,Lawrenceville,GA,30044,7709956200,KROGER,33.94039,-84.0830135
01100441,Kroger - Centennial Village,2300 Holcomb Bridge Rd,Roswell,GA,30076,6783527488,KROGER,34.0052869,-84.2947367
01100442,Kroger - Stilesboro Oaks,1720 Mars Hill Rd NW,Acworth,GA,30101,7704195490,KROGER,33.9958096,-84.7045479
01100443,Kroger - Midway Plaza,910 Athens Hwy,Loganville,GA,30052,7705541100,KROGER,33.8593373,-83.9545782
01100444,Kroger - Grassland Crossing,5665 Atlanta Hwy,Alpharetta,GA,30004,7707525380,KROGER,34.1451658,-84.2498665
01100445,Kroger - Lithonia,6678 Covington Hwy,Lithonia,GA,30058,7705937110,KROGER,33.718677,-84.1444901
01100446,Kroger - Shiloh Square,3895 Cherokee St NW,Kennesaw,GA,30144,7702187030,KROGER,34.0486951,-84.6033157
01100448,Kroger - Sparkleberry Square SC,10136 Two Notch Rd,Columbia,SC,29229,8037886171,KROGER,34.114865,-80.882523
01100449,Kroger - Rockbridge Village,1227 Rockbridge Rd,Stone Mountain,GA,30087,7702251877,KROGER,33.8411557,-84.1329874
01100451,Kroger - Vinings Village,4715 S Atlanta Rd SE,Smyrna,GA,30339,4047926990,KROGER,33.8391681,-84.4822344
01100453,Kroger - Varner Crossing,4150 Macland Rd,Powder Springs,GA,30127,7702225180,KROGER,33.9033852,-84.6751671
01100454,Kroger - Pavilions At East Lake,2100 Roswell Rd Ste 2140,Marietta,GA,30062,7703211080,KROGER,33.9675443,-84.4879663
01100455,Kroger - West Marietta Crossing,1000 Whitlock Ave NW,Marietta,GA,30064,7704217676,KROGER,33.9533665,-84.5813138
01100456,Kroger - Brownsville Commons,4400 Brownsville Rd,Powder Springs,GA,30127,7702224200,KROGER,33.8465711,-84.6993156
01100457,Kroger - Mountain Crossing,2700 Braselton Hwy,Dacula,GA,30019,7706141020,KROGER,34.0515213,-83.9302969
01100458,Kroger - Dalton Plaza,1365 W Walnut Ave,Dalton,GA,30720,7062700843,KROGER,34.7588247,-84.9944607
01100459,Kroger - North Decatur,2875 N Decatur Rd,Decatur,GA,30033,4042945311,KROGER,33.7918881,-84.2734003
01100460,Kroger - Kroger Savannah,7 Diamond CSWY,Savannah,GA,31406,9123534345,KROGER,31.956798,-81.098033
01100461,Kroger - Edgewood,1225 Caroline St NE,Atlanta,GA,30307,4048804105,KROGER,33.756079,-84.3480363
01100462,Kroger - Greenbriar Crossing,3030 Headland Dr SW,Atlanta,GA,30311,4043440177,KROGER,33.6868782,-84.4877367
01100463,Kroger - Towne Lake,2295 Towne Lake Pkwy,Woodstock,GA,30189,7705172080,KROGER,34.1125992,-84.5556694
01100464,Kroger - Mableton Crossing,4875 Floyd Rd SW,Mableton,GA,30126,7707453100,KROGER,33.8352744,-84.5741757
01100465,Kroger - Cascade Corners,3425 Cascade Rd SW,Atlanta,GA,30311,4045058855,KROGER,33.724311,-84.4990675
01100467,Kroger - City Walk,227 Sandy Springs Pl NE,Sandy Springs,GA,30328,4042563434,KROGER,33.92016,-84.381495
01100469,Kroger - Windward Village,11877 Douglas Rd,Alpharetta,GA,30005,7707513110,KROGER,34.0705621,-84.2076044
01100471,Kroger - Old National,6055 Old National Hwy,College Park,GA,30349,7709964441,KROGER,33.5901144,-84.4705239
01100473,Kroger - Keith Bridge Commons,2655 Freedom Pkwy,Cumming,GA,30041,7707816683,KROGER,34.2508344,-84.0912207
01100475,Kroger - Chapel Hills Commons,4919 Flat Shoals Pkwy,Decatur,GA,30034,7703228984,KROGER,33.6791479,-84.2285409
01100476,Kroger - Sugarloaf Parkway,6555 Sugarloaf Pkwy,Duluth,GA,30097,7708147190,KROGER,33.9979602,-84.0898735
01100477,Kroger - Dean Taylor Crossing,2121 Lawrenceville Suwanee Rd,Suwanee,GA,30024,7709627958,KROGER,34.0034773,-84.0382911
01100478,Kroger - Shallowford Falls,3162 Johnson Ferry Rd,Marietta,GA,30062,7706506673,KROGER,34.0260671,-84.4220731
01100480,Kroger - Grayson Commons,1911 Grayson Hwy,Grayson,GA,30017,7702372531,KROGER,33.8971903,-83.961997
01100482,Kroger - Cofer Crossing,4357 Lawrenceville Hwy,Tucker,GA,30084,7709341104,KROGER,33.8550929,-84.2069937
01100483,Kroger - Presidential Commons,1670 Scenic Hwy N,Snellville,GA,30078,7709853790,KROGER,33.882987,-84.0078343
01100484,Kroger - Everson Pointe,3035 Scenic Hwy S Ste 19,Snellville,GA,30039,7709820655,KROGER,33.8249409,-84.0332928
01100485,Kroger - Douglasville,3875 Chapel Hill Rd,Douglasville,GA,30135,7709477144,KROGER,33.6996627,-84.7186933
01100486,Kroger - Sharon Greens,1595 Peachtree Pkwy,Cumming,GA,30041,6784554580,KROGER,34.1222698,-84.1689119
01100487,Kroger - Hinesville,555 W Oglethorpe Hwy,Hinesville,GA,31313,9128766010,KROGER,31.8357763,-81.5975332
01100488,Kroger - Ripplewater Village,1160 Moreland Ave SE,Atlanta,GA,30316,4046248110,KROGER,33.7224318,-84.347745
01100490,Kroger - Fayetteville Town Center,805 Glynn St S Ste 117,Fayetteville,GA,30214,7704616880,KROGER,33.4328996,-84.4586692
01100491,Kroger - Cherokee Plaza,3871 Peachtree Rd NE,Brookhaven,GA,30319,4042400808,KROGER,33.85637,-84.3446936
01100492,Kroger - Lake City Plaza,5664 Jonesboro Rd,Lake City,GA,30260,7709609445,KROGER,33.60025,-84.336962
01100493,Kroger - Spivey Junction,1750 Hudson Bridge Rd,Stockbridge,GA,30281,7705077732,KROGER,33.5031974,-84.244192
01100494,Kroger - Hamilton Ridge,3300 Hamilton Mill Rd,Buford,GA,30519,7706141081,KROGER,34.0932104,-83.9375302
01100495,Kroger - Windward Commons,12870 Highway 9 N,Alpharetta,GA,30004,7707723699,KROGER,34.0963,-84.27771
01100497,Kroger - Coleman Village,900 Marietta Hwy,Roswell,GA,30075,7706409199,KROGER,34.0040692,-84.3894126
01100498,Kroger - Battle Ridge Pavilion,1690 Powder Springs Rd SW,Marietta,GA,30064,7702185699,KROGER,33.9084559,-84.6031124
01100499,Kroger - Belfair Towne Village,125 Towne Dr,Bluffton,SC,29910,8438156070,KROGER,32.2682593,-80.8583131
01100609,Kroger - Wilmington Island,495 Johnny Mercer Blvd,Savannah,GA,31410,9128973532,KROGER,32.0161529,-80.9768114
01100616,Kroger - Ridge Crossing,4815 Ridge Rd,Douglasville,GA,30134,7709491652,KROGER,33.8190562,-84.8125894
01100618,Kroger Marketplace - Trail Creek Village,700 Highway 29 N,Athens,GA,30601,7067153738,KROGER,33.9956197,-83.3342437
01100619,Kroger - Griffin,1524 Highway 16 W,Griffin,GA,30223,7702297427,KROGER,33.2450201,-84.2942214
01100620,Kroger - Burgess Crossing,115 Bill Wigington Pkwy,Jasper,GA,30143,7066921200,KROGER,34.4666765,-84.4625828
01100621,Kroger - Covington Marketplace,3700 Salem Rd,Covington,GA,30016,6783426039,KROGER,33.59414,-83.9682982
01100625,Kroger Marketplace - Rincon Marketplace,461 S Columbia Ave,Rincon,GA,31326,9128267660,KROGER,32.274895,-81.231965
01100626,Kroger - Lindberg,2452 Morosgo Way NE,Atlanta,GA,30324,4049460438,KROGER,33.822712,-84.365645
01100627,Kroger Marketplace - Bethelview Plaza,5550 Bethelview Rd,Cumming,GA,30040,6784564052,KROGER,34.169778,-84.185635
01100629,Kroger Marketplace - Cartersville Marketplace,125 Main Street Market PL SE,Cartersville,GA,30121,7703868102,KROGER,34.171616,-84.7767
01100631,Kroger - Tiger Town,2460 Enterprise Dr,Opelika,AL,36801,3347372643,KROGER,32.6207323,-85.4116953
01100632,Kroger - Royal Lakes,4025 Winder Hwy,Flowery Branch,GA,30542,7705395020,KROGER,34.1964071,-83.8571975
01100633,Kroger Marketplace - Union Grove Marketplace,2000 Highway 155 N,McDonough,GA,30252,6783791000,KROGER,33.505045,-84.141482
01100634,Kroger - Dallas,8876 Dallas Acworth Hwy,Dallas,GA,30132,6785747173,KROGER,34.0107831,-84.7521
01100635,Kroger - Dacula,505 Dacula Rd,Dacula,GA,30019,6784078739,KROGER,34.0012709,-83.9058238
01100636,Kroger - Reynolds Crossing,3093 Steve Reynolds Blvd,Duluth,GA,30096,7702250955,KROGER,33.960459,-84.1437596
01100638,Kroger - Loggins Corner,1685 Old Pendergrass Rd,Jefferson,GA,30549,7063877600,KROGER,34.121943,-83.607031
01100639,Kroger Marketplace - Martins Chapel Marketplace,1006 Martins Chapel Rd,Lawrenceville,GA,30045,6783436560,KROGER,33.948666,-83.925498
01100640,Kroger - River Commons,1284 Knox Ave,North Augusta,SC,29841,8034424500,KROGER,33.5063667,-81.9603801
01100641,Kroger Marketplace - Nixon Crossing Marketplace,774 Highway 96,Bonaire,GA,31005,4789885700,KROGER,32.552589,-83.659703
01100644,Kroger Marketplace - Grovetown Marketplace,435 Lewiston Rd,Grovetown,GA,30813,7066193420,KROGER,33.48969,-82.202014
01100645,Kroger - Berwick Marketplace,5720 Ogeechee Rd,Savannah,GA,31405,9122353420,KROGER,32.0272744,-81.2258292
01100647,Kroger - Newnan Crossing,1751 Newnan Crossing Blvd E,Newnan,GA,30265,6784235841,KROGER,33.3771758,-84.7517354
01100653,Kroger - Rivermont Station,8465 Holcomb Bridge Rd Ste 2000,Johns Creek,GA,30022,7706501000,KROGER,33.9874062,-84.2689539
01100655,Kroger - Sage Hill,1799 Briarcliff Rd NE,Atlanta,GA,30306,4046071189,KROGER,33.8041591,-84.3363931
01100657,Kroger - Sandy Plains Centre,2960 Shallowford Rd,Marietta,GA,30066,7709777724,KROGER,34.0347971,-84.4666413
01100664,Kroger - Eisenhower Crossing,3942 Harper Franklin Ave,Augusta,GA,30909,7062615201,KROGER,33.446596,-82.119164
01100667,Kroger - Riverbend Center,1476 Turner McCall Blvd SW,Rome,GA,30161,7062908039,KROGER,34.2482846,-85.1629119
01100670,Kroger Marketplace - Dawsonville Marketplace,378 Marketplace Pkwy,Dawsonville,GA,30534,4703751989,KROGER,34.350197,-84.053207
01100671,Kroger - Shelter Cove,42 Shelter Cove Ln,Hilton Head,SC,29928,8438420540,KROGER,32.1858848,-80.720339
01100672,Kroger - Glenwood Kroger,800 Glenwood Ave SE,Atlanta,GA,30316,4704475030,KROGER,33.742558,-84.35962
01100673,Kroger - Dallas Commons,455 Nathan Dean Blvd,Dallas,GA,30132,7704430811,KROGER,33.9108875,-84.822827
01100674,Kroger - Dublin Village,1100 Hillcrest Pkwy,Dublin,GA,31021,4782773081,KROGER,32.5444659,-82.9375341
01100675,Kroger - Aiken,1795 Whiskey Rd,Aiken,SC,29803,8036425280,KROGER,33.5236551,-81.7220202
01100676,Kroger - Washington Walk,2801 Washington Rd,Augusta,GA,30909,7067317300,KROGER,33.5118756,-82.0293532
01100678,Kroger Marketplace - Killians Crossing,1028 Roberts Branch Pkwy,Columbia,SC,29203,8032347130,KROGER,34.143218,-80.951511
01100679,Kroger - Loganville Crossing,4753 Atlanta Hwy,Loganville,GA,30052,6786394474,KROGER,33.8312195,-83.8842679
01100680,Kroger - Hickory Flat Commons,6766 Hickory Flat Hwy,Canton,GA,30115,7707217300,KROGER,34.171429,-84.4166476
01100682,Kroger Marketplace - New Holland Market,1931 Jesse Jewell PKWY SE,Gainesville,GA,30501,4702523182,KROGER,34.315188,-83.798172
01100685,Kroger - Embry Village,3559 Chamblee Tucker Rd,Atlanta,GA,30341,7702436211,KROGER,33.883897,-84.247698
01100687,Kroger - Sugar Hill,6001 Cumming Hwy,Sugar Hill,GA,30518,6785462148,KROGER,34.1220058,-84.0766676
01100688,Kroger - Richmond Hill,53 Exchange St,Richmond Hill,GA,31324,9124593011,KROGER,31.9565146,-81.3196117
01100694,Kroger - Milledgeville,2809 N Columbia St,Milledgeville,GA,31061,4784142140,KROGER,33.153436,-83.2718596
01100695,Kroger - Ponce,725 Ponce de Leon Ave NE,Atlanta,GA,30306,4703514222,KROGER,33.771651,-84.363357
01100696,Kroger - Crossroads Market,3094 Watson Blvd,Warner Robins,GA,31093,4789712320,KROGER,32.6189172,-83.6953165
01100697,Kroger Marketplace - Savannah Marketwalk,318 Mall Blvd Ste 100,Savannah,GA,31406,9122009158,KROGER,32.00588,-81.112612
01100699,Kroger - Smyrna,3240 S Cobb Dr SE,Smyrna,GA,30080,7704333410,KROGER,33.8751433,-84.5336284
01100703,Kroger Marketplace - Buckwalter Place,27 Discovery Dr,Bluffton,SC,29910,8439897022,KROGER,32.274199,-80.917438
01100730,Kroger - Terrell Mill,1310 Powers Ferry Rd SE,Marietta,GA,30067,4044967850,KROGER,33.919522,-84.469097
01100921,Kroger - Groveland loyalty,7925 American Way,Groveland,FL,34736,9999999999,KROGER,28.637873,-81.820496
01100922,Kroger - Miami Loyalty,14150 NW 56th Ct Suite 100,Opa-Locka,FL,33054,9999999999,KROGER,25.9033971,-80.291212
01100923,Kroger - Birmingham Loyalty,14 W Oxmoor Rd,Homewood,AL,35209,9999999999,KROGER,33.458949,-86.840492
01100924,Kroger - Coco Beach Loyalty,5565 Korbin Ave,Rockledge,FL,32955,,KROGER,28.265403,-80.694687
01100979,Kroger - McAlpin Square,1900 E Victory Dr Ste 12,Savannah,GA,31404,9122369321,KROGER,32.0455123,-81.0679998
01100995,Kroger - Loyalty Fulfillment Atlanta,2000 Anvil Block Rd,Forest Park,GA,30297,9999999999,KROGER,33.617813,-84.332003
01400003,Kroger - Lab Checkout Team,11450 Grooms Rd,Cincinnati,OH,45242,,KROGER,39.275049,-84.364905
01400007,Lab Location - Lab CI007,11450 Grooms Rd,Cincinnati,OH,45242,9999999999,LAB LOCATION,39.275009,-84.364599
01400009,Lab Location - Lab CI009,11450 Grooms Rd,Cincinnati,OH,45242,,LAB LOCATION,39.275049,-84.364905
01400020,Lab Location - Lab CI020,11450 Grooms Rd,Cincinnati,OH,45242,,LAB LOCATION,39.275049,-84.364905
01400021,Lab Location - Lab CI021,11450 Grooms Rd,Cincinnati,OH,45242,,LAB LOCATION,39.275049,-84.364905
01400022,Lab Location - Lab CI022,11450 Grooms Rd,Cincinnati,OH,45242,,LAB LOCATION,39.275049,-84.364905
01400023,Lab Location - Lab CI023,11450 Grooms Rd,Blue Ash,OH,45242,,LAB LOCATION,39.275157,-84.364863
01400024,Lab Location - Lab CI024,11450 Grooms Rd,Blue Ash,OH,45242,,LAB LOCATION,39.275142,-84.364867
01400026,Kroger - Blue Ash Lab Store Blue Ash,6101 W Washington St,Phoenix,AZ,85043,9999999999,KROGER,33.4456722,-112.1927288
01400045,Kroger - VS Lab,9997 Montgomery Rd,Cincinnati,OH,45242,9999999999,KROGER,39.239041,-84.349938
01400053,Kroger Fuel - Harpers Point Fuel,12080 Montgomery Rd,Cincinnati,OH,45249,9999999999,KROGER,39.288625,-84.301223
01400082,Kroger - Reed Hartman Fuel,11220 Reed Hartman Hwy,Blue Ash,OH,45241,5137867090,KROGER,39.270599,-84.375178
01400335,Kroger - Oxford State Road,428 Oxford State Rd,Middletown,OH,45044,5134235161,KROGER,39.479172,-84.421109
01400336,Kroger - Monroe,3033 Heritage Green Dr,Monroe,OH,45050,5137277422,KROGER,39.442454,-84.378098
01400344,Kroger - Goshen,6725 Dick Flynn Blvd,Goshen,OH,45122,5137227440,KROGER,39.2315792,-84.1646591
01400351,Kroger - Montgomery,9939 Montgomery Rd,Montgomery,OH,45242,5137936451,KROGER,39.2381848,-84.3506946
01400353,Kroger - Harpers Point,11390 Montgomery Rd,Cincinnati,OH,45249,5132477740,KROGER,39.2715609,-84.3259895
01400355,Kroger - Hyde Park,3760 Paxton Ave,Cincinnati,OH,45209,5138714142,KROGER,39.144662,-84.429584
01400359,Kroger - Bellevue Kroger,53 Donnermeyer Dr,Bellevue,KY,41073,8594914210,KROGER,39.0992898,-84.48185
01400361,Kroger - Lawrenceburg Kroger,880 W Eads Pkwy,Lawrenceburg,IN,47025,8125327340,KROGER,39.0848434,-84.8778069
01400364,Kroger - Mt Zion,9950 Berberich Dr,Florence,KY,41042,8593723460,KROGER,38.9579368,-84.6246617
01400367,Kroger Marketplace - Walton KY Marketplace,635 Chestnut Dr,Walton,KY,41094,8593790023,KROGER,38.856209,-84.616966
01400370,Kroger - Monfort Heights OH,3491 North Bend Rd,Cincinnati,OH,45239,5135987500,KROGER,39.1896065,-84.5987839
01400376,Kroger - Landen,2900 W US Highway 22 and 3 STE 1,Maineville,OH,45039,5136834001,KROGER,39.3110881,-84.2751167
01400380,Kroger - Hillsboro,575 Harry Sauner Rd,Hillsboro,OH,45133,9378409358,KROGER,39.2247213,-83.6192748
01400381,Kroger - 15th Madison,1525 Madison Ave,Covington,KY,41011,8594311607,KROGER,39.072869,-84.50848
01400383,Kroger - Liberty Township OH,7300 Yankee Rd,Liberty Township,OH,45044,5133423255,KROGER,39.377251,-84.3761418
01400384,Kroger - Finneytown OH,8421 Winton Rd,Cincinnati,OH,45231,5137288630,KROGER,39.2203019,-84.5192304
01400390,Kroger - Cincinnati,7132 Hamilton Ave,Cincinnati,OH,45231,5137282700,KROGER,39.2245422,-84.5478434
01400392,Kroger - Latonia,4303 Winston Ave,Covington,KY,41015,8596550700,KROGER,39.0415197,-84.5091933
01400395,Kroger - Blanchester,1001 Cherry St,Blanchester,OH,45107,9377830240,KROGER,39.301354,-83.9609353
01400402,Kroger - Madeira,6950 Miami Ave,Cincinnati,OH,45243,5132711260,KROGER,39.188105,-84.361497
01400405,Kroger - Hartwell,8241 Vine St,Cincinnati,OH,45216,5138212230,KROGER,39.2102762,-84.4753884
01400406,Kroger - Batesville,1034 State Road 229,Batesville,IN,47006,8129336200,KROGER,39.3123314,-85.2148866
01400409,Kroger Marketplace - Hebron KY Marketplace,3105 N Bend Rd,Hebron,KY,41048,8599624900,KROGER,39.0644282,-84.7069317
01400410,Kroger - Cold Spring,375 Cross Roads Blvd,Cold Spring,KY,41076,8594481170,KROGER,39.00629,-84.420587
01400411,Kroger - Milford,824 Main St,Milford,OH,45150,5139653640,KROGER,39.1761178,-84.2805863
01400412,Kroger - Oxford,300 S Locust St,Oxford,OH,45056,5135232201,KROGER,39.5069434,-84.7513025
01400413,Kroger - Loveland,800 Loveland Madeira Rd,Loveland,OH,45140,5136773820,KROGER,39.2612003,-84.2733961
01400418,Kroger - Montgomery Rd Norwood,4500 Montgomery Rd,Cincinnati,OH,45212,5138416600,KROGER,39.1587311,-84.4554364
01400420,Kroger - Maysville,370 Market Square Dr,Maysville,KY,41056,6069563140,KROGER,38.6266926,-83.7908912
01400421,Kroger - Mariemont,7385 Wooster Pike,Cincinnati,OH,45227,5132719444,KROGER,39.1416149,-84.3616532
01400423,Kroger Marketplace - I-471 Memorial Pkwy Carothers Rd,130 Pavilion Pkwy,Newport,KY,41071,8592925640,KROGER,39.0902737,-84.4783988
01400424,Kroger - Union Fuel Center,8775 US Highway 42,Union,KY,41091,8596551500,KROGER,38.9672807,-84.6716831
01400426,Kroger - Kings Mills Mason,5210 State Route 741,Mason,OH,45040,5133988680,KROGER,39.3607444,-84.2789322
01400428,Kroger - St Bernard,4777 Kenard Ave,Cincinnati,OH,45232,5136817650,KROGER,39.1644117,-84.5148034
01400429,Kroger - Sharonville OH,12164 Lebanon Rd,Cincinnati,OH,45241,5137334910,KROGER,39.2965534,-84.3899154
01400431,Kroger - Cherry Grove,450 Ohio Pike,Cincinnati,OH,45255,5135286120,KROGER,39.0741722,-84.3114587
01400432,Kroger - Ferguson Road,2310 Ferguson Rd,Cincinnati,OH,45238,5139228090,KROGER,39.126708,-84.5973922
01400433,Kroger - Woodlawn,10595 Springfield Pike,Cincinnati,OH,45215,5137711801,KROGER,39.2600763,-84.4712549
01400434,Kroger - Burlington,1751 Patrick Dr,Burlington,KY,41005,8595864450,KROGER,39.0180491,-84.6924703
01400435,Kroger - Miami Township,6388 Branch Hill Guinea Pike,Loveland,OH,45140,5136974800,KROGER,39.229795,-84.253905
01400438,Kroger - Mt Washington,2120 Beechmont Ave,Cincinnati,OH,45230,5132314530,KROGER,39.093585,-84.3864713
01400439,Kroger Marketplace - Kyles Station,5250 Newtown Dr,Liberty Twp,OH,45011,5138675900,KROGER,39.42243,-84.457242
01400441,Kroger Marketplace - Towne Blvd,3420 Towne Blvd,Middletown,OH,45005,5132172140,KROGER,39.4949693,-84.3279195
01400444,Kroger Marketplace - Green Township,5910 Harrison Ave,Cincinnati,OH,45248,5133702000,KROGER,39.177059,-84.641219
01400445,Kroger - Whitewater Twp,4001 Hamilton Cleves Rd,Cleves,OH,45002,5138532500,KROGER,39.1721421,-84.7608396
01400447,Kroger Marketplace - Lebanon OH Marketplace,1425 Columbus Ave,Lebanon,OH,45036,5132287340,KROGER,39.4542432,-84.1820957
01400448,Kroger - Mason Montgomery Mason OH,5100 Terra Firma Dr,Mason,OH,45040,5132295900,KROGER,39.318099,-84.315689
01400454,Kroger Marketplace - Union Marketplace,9001 US Highway 42,Union,KY,41091,8593349400,KROGER,38.962402,-84.67646
01400465,Kroger Marketplace - Oakley OH Marketplace,4613 Marburg Ave,Cincinnati,OH,45209,5137825100,KROGER,39.1601221,-84.4270873
01400466,Kroger Marketplace - Florence Marketplace,7685 Mall Rd,Florence,KY,41042,8597955800,KROGER,38.9969875,-84.6562035
01400468,Kroger Marketplace - Pierce Township Marketplace,262 W Main St,Amelia,OH,45102,5137182202,KROGER,39.0359892,-84.2330384
01400475,Kroger Marketplace - Independence Marketplace,1700 Declaration Dr,Independence,KY,41051,8598981600,KROGER,38.9286769,-84.5483376
01400477,Kroger - Ft Mitchell,2150 Dixie Hwy,Fort Mitchell,KY,41017,8592921800,KROGER,39.048838,-84.55298
01400482,Kroger - Warsaw Avenue,3609 Warsaw Ave,Cincinnati,OH,45205,5135987880,KROGER,39.1093681,-84.5715512
01400492,Kroger - Kroger Hamilton Township,148 E Towne Center Blvd,Maineville,OH,45039,5134941774,KROGER,39.345093,-84.215992
01400513,Kroger - Kroger On the Rhine,100 E Court St,Cincinnati,OH,45202,5132635900,KROGER,39.10682,-84.51253
01400705,Kroger - Wayne Ave,1555 Wayne Ave,Dayton,OH,45410,9372542501,KROGER,39.7460382,-84.1718428
01400722,Kroger - Austin Pike Landing,10101 Landing Way,Miamisburg,OH,45342,9373844200,KROGER,39.6023578,-84.2302926
01400741,Kroger - Derr Rd,2989 Derr Rd,Springfield,OH,45503,9373902390,KROGER,39.9660601,-83.7868154
01400747,Kroger - Vandalia,780 Northwoods Blvd,Vandalia,OH,45377,9372642400,KROGER,39.8993538,-84.1841067
01400754,Kroger - Brandt Pike,4506 Brandt Pike,Dayton,OH,45424,9372338843,KROGER,39.8173105,-84.1254526
01400758,Kroger - Huber Heights,7747 Troy Pike,Huber Heights,OH,45424,9372337602,KROGER,39.8668333,-84.1405085
01400765,Kroger - Kroger Riverside,601 Woodman Dr,Dayton,OH,45431,9375355800,KROGER,39.758016,-84.122147
01400770,Kroger - Kroger Miamisburg,255 N Heincke Road,Miamisburg,OH,45342,9378472801,KROGER,39.641824,-84.266305
01400811,Kroger Marketplace - Beavercreek,3165 Dayton Xenia Rd,Beavercreek,OH,45434,9379120500,KROGER,39.725551,-84.054141
01400817,Kroger - Wilmington,1230 Rombach Ave,Wilmington,OH,45177,9376555700,KROGER,39.4464335,-83.8072486
01400825,Kroger - Kettering,2115 E Dorothy Ln,Kettering,OH,45420,9372997475,KROGER,39.7045622,-84.1247755
01400826,Kroger - Eichelberger Shopping Center,530 E Stroop Rd,Kettering,OH,45429,9372997500,KROGER,39.6881303,-84.1620238
01400827,Kroger - Connersville In,516 W 30Th St,Connersville,IN,47331,7658275550,KROGER,39.673009,-85.134549
01400828,Kroger - Eaton,1603 N Barron St,Eaton,OH,45320,9374722300,KROGER,39.7641466,-84.6386664
01400829,Kroger - West Park Square,1700 W Park Sq,Xenia,OH,45385,9373767962,KROGER,39.6896087,-83.9582351
01400832,Kroger - N Bechtle Ave,965 N Bechtle Ave,Springfield,OH,45504,9373230340,KROGER,39.9371438,-83.8358305
01400833,Kroger - Greenville,200 Lease Ave,Greenville,OH,45331,9375481960,KROGER,40.1268932,-84.62265
01400835,Kroger - E Main Street,2728 E Main St,Springfield,OH,45503,9375256750,KROGER,39.9251422,-83.7654031
01400836,Kroger - Siebenthaler Ave,3520 W Siebenthaler Ave,Dayton,OH,45406,9375679578,KROGER,39.7968669,-84.2458902
01400838,Kroger Marketplace - E Dayton Yellow Springs,1161 E Dayton Yellow Springs Rd,Fairborn,OH,45324,9373183900,KROGER,39.786131,-83.995012
01400901,Kroger - Silverlake,3158 Dixie Hwy,Erlanger,KY,41018,8593440222,KROGER,39.0216162,-84.593735
01400902,Kroger - Eastgate,4530 Eastgate Blvd Ste 500,Cincinnati,OH,45245,5139433900,KROGER,39.1030213,-84.2712059
01400907,Kroger Marketplace - Harrison OH Marketplace,10477 Harrison Ave,Harrison,OH,45030,5133672100,KROGER,39.249293,-84.791679
01400909,Kroger - Hamilton Meadows SC,1474 Main St,Hamilton,OH,45013,5138681110,KROGER,39.4260503,-84.5940142
01400910,Kroger - Saint Marys,475 Fortman Dr,Saint Marys,OH,45885,4193948920,KROGER,40.5543188,-84.3847332
01400913,Kroger - Sidney Oh,2100 Michigan St,Sidney,OH,45365,9374977411,KROGER,40.2898275,-84.186932
01400915,Kroger - Anderson Township,7580 Beechmont Ave,Cincinnati,OH,45255,5132334400,KROGER,39.074332,-84.347973
01400920,Kroger Marketplace - Mt Orab Marketplace,210 Sterling Run Blvd,Mount Orab,OH,45154,9374446910,KROGER,39.0395591,-83.9241104
01400921,Kroger - Milford-Mulberry,1093 State Route 28,Milford,OH,45150,5135833800,KROGER,39.193092,-84.23506
01400923,Kroger Marketplace - Centerville Marketplace,1095 S Main St,Centerville,OH,45458,9374358210,KROGER,39.6071088,-84.1634476
01400925,Kroger - Kroger Springboro,625 W Central Ave,Springboro,OH,45066,9377435900,KROGER,39.560586,-84.256715
01400929,Kroger - University Plaza,1 W Corry St,Cincinnati,OH,45219,5138721500,KROGER,39.128667,-84.509336
01400932,Kroger - Piqua,1510 Covington Ave,Piqua,OH,45356,9376157000,KROGER,40.1433803,-84.2649697
01400934,Kroger - Hamilton,1450 S Erie HWY,Hamilton,OH,45011,5138685420,KROGER,39.3810118,-84.5474504
01400935,Kroger - Sugarcreek Twp,6480 Wilmington Pike,Centerville,OH,45459,9378485990,KROGER,39.6399957,-84.1080692
01400938,Kroger Marketplace - Englewood,885 Union Blvd,Englewood,OH,45322,9378324060,KROGER,39.8630238,-84.3139009
01400939,Kroger - Fairfield,560 Wessel Dr,Fairfield,OH,45014,5138588200,KROGER,39.336188,-84.562509
01400942,Kroger - Blue Ash,4100 Hunt Rd,Blue Ash,OH,45236,5137921500,KROGER,39.2272828,-84.3978512
01400943,Kroger - Forest Park,1212 W Kemper Rd,Cincinnati,OH,45240,5136745800,KROGER,39.2900055,-84.5250073
01400944,Kroger - Delhi,5080 Delhi Rd,Cincinnati,OH,45238,5134517200,KROGER,39.0962602,-84.6127791
01400945,Kroger - Tylersville Road West Chester OH,7855 Tylersville Rd,West Chester,OH,45069,5137777381,KROGER,39.351272,-84.363248
01400946,Kroger - Highland Hts Cold Sp,70 Martha Layne Collins Blvd,Cold Spring,KY,41076,8597818808,KROGER,39.0257363,-84.4535666
01400948,Kroger - Western Village Shopping Center,6165 Glenway Ave,Cincinnati,OH,45211,5137192401,KROGER,39.1427165,-84.622713
01400951,Kroger - Alex Bell,2921 W Alex Bell Rd,Dayton,OH,45459,9372947141,KROGER,39.674512,-84.219693
01400959,Kroger - Crossings of Beckett,8000 Princeton Glendale Rd,West Chester,OH,45069,5136828000,KROGER,39.359131,-84.458158
01400960,Kroger - Centerville,5400 Cornerstone North Blvd,Centerville,OH,45440,9375287040,KROGER,39.6623,-84.103832
01400968,Kroger - Colerain Marketplace,3636 Springdale Rd,Cincinnati,OH,45251,5136399900,KROGER,39.249048,-84.599709
01400984,Kroger Marketplace - Troy Marketplace,731 W Market St,Troy,OH,45373,9375734400,KROGER,40.030933,-84.22115
01400988,Kroger - Mt Zion KY Loyalty,251 E Mount Zion Rd,Independence,KY,41051,9999999999,KROGER,38.956015,-84.612124
01400989,Kroger - Loyalty Fulfillment Cincinnati,6266 Hamilton Lebanon Rd,Monroe,OH,45044,9999999999,KROGER,39.447709,-84.406479
01400998,Kroger - SuperLab,251 E Mount Zion Rd,Independence,KY,41051,9999999999,KROGER,38.95667,-84.614324
014LS994,Lab Location - CI,11450 Grooms Rd,Cincinnati,OH,45242,9999999999,LAB LOCATION,39.275049,-84.364905
01600036,Kroger - Kroger Fremont,524 E State St,Fremont,OH,43420,4193552587,KROGER,41.345424,-83.104623
01600128,Kroger Marketplace - Kroger Newark Marketplace,1155 N 21st St,Newark,OH,43055,7402586677,KROGER,40.08045,-82.429488
01600202,Kroger - Warwood,1241 Warwood Ave,Wheeling,WV,26003,3042773260,KROGER,40.114094,-80.699739
01600232,Kroger - Kroger Reynoldsburg,6580 E Main St,Reynoldsburg,OH,43068,6148665336,KROGER,39.9557,-82.822659
01600251,Kroger - Mcconnelsville,240 W Main St,McConnelsville,OH,43756,7409622113,KROGER,39.6486784,-81.8562293
01600264,Kroger - Memorial Dr,1621 N Memorial Dr,Lancaster,OH,43130,7406542511,KROGER,39.729541,-82.615136
01600268,Kroger - Wellsburg,91 27Th St,Wellsburg,WV,26070,3042436220,KROGER,40.2906033,-80.6089879
01600273,Kroger Fresh Fare - Worthington Mall,60 Worthington Mall,Worthington,OH,43085,6148853889,KROGER,40.1091901,-83.017746
01600312,Kroger - Chillicothe,1165 Western Ave,Chillicothe,OH,45601,7407733150,KROGER,39.3342617,-83.0165373
01600313,Kroger - New Lex,610 Carroll St,New Lexington,OH,43764,7403423578,KROGER,39.7215345,-82.2031385
01600315,Kroger - Bexley,2000 E Main St,Columbus,OH,43205,6142520761,KROGER,39.9582605,-82.945047
01600327,Kroger - Findlay,1996 Tiffin Ave,Findlay,OH,45840,4194221163,KROGER,41.0555673,-83.6067631
01600328,Kroger - Henderson Rd,1955 Henderson Rd,Upper Arlington,OH,43220,6144571825,KROGER,40.0543055,-83.0725659
01600341,Kroger - Stringtown,2474 Stringtown Rd,Grove City,OH,43123,6148751676,KROGER,39.8828425,-83.06863
01600348,Kroger - Bridge Street,887 N Bridge St,Chillicothe,OH,45601,7407732901,KROGER,39.3543988,-82.9742619
01600350,Kroger Fresh Fare - Dublin Plaza,299 W Bridge St,Dublin,OH,43017,6148896687,KROGER,40.0978166,-83.1222563
01600363,Kroger - Waverly,220 Waverly Plz,Waverly,OH,45690,7409477738,KROGER,39.1330466,-82.9766677
01600371,Kroger - Martins Ferry,400 Aetna St,Martins Ferry,OH,43935,7406335017,KROGER,40.0868407,-80.733012
01600385,Kroger - Plain City,12116 Sycamore Trce,Plain City,OH,43064,,KROGER,40.187798,-83.201358
01600388,Kroger - London,230 Lafayette St,London,OH,43140,7408525542,KROGER,39.8968442,-83.435432
01600504,Kroger - Swanton,113 E Airport Hwy,Swanton,OH,43558,4198251985,KROGER,41.5823415,-83.8856995
01600506,Kroger - Bucyrus,210 E Mary St,Bucyrus,OH,44820,4195624719,KROGER,40.811345,-82.97313
01600510,Kroger - 6Th Street,101 6Th St,Findlay,OH,45840,4194232065,KROGER,41.0220431,-83.6489533
01600511,Kroger - Miracle Mile,4925 Jackman Rd,Toledo,OH,43613,4194754394,KROGER,41.7046165,-83.5865451
01600512,Kroger - Hollywood Plaza,264 S Hollywood Blvd,Steubenville,OH,43952,7402645057,KROGER,40.3670513,-80.6398458
01600514,Kroger - Gender Road,3588 Gender Rd,Canal Winchester,OH,43110,6149207400,KROGER,39.9083188,-82.8226026
01600518,Kroger - Park Avenue,1240 Park Ave W,Mansfield,OH,44906,4195281860,KROGER,40.7609123,-82.5608998
01600519,Kroger - Georgesville,1585 Georgesville Square Dr,Columbus,OH,43228,6148781332,KROGER,39.920118,-83.121384
01600522,Kroger Marketplace - Hunters Ridge,300 S Hamilton Rd,Gahanna,OH,43230,6144166430,KROGER,40.0118724,-82.8647038
01600525,Kroger - Kroger Maumee,1435 Reynolds Rd,Maumee,OH,43537,5673022688,KROGER,41.584247,-83.666962
01600529,Kroger - Nelsonville,965 Poplar St,Nelsonville,OH,45764,7407532984,KROGER,39.4517722,-82.2207556
01600531,Kroger - Waterville,8730 Waterville Swanton Rd,Waterville,OH,43566,4198781030,KROGER,41.509023,-83.75036
01600532,Kroger - Refugee Road,7833 Refugee Rd,Pickerington,OH,43147,6144170050,KROGER,39.9058474,-82.7348924
01600536,Kroger - Kroger Fremont,1700 Cedar St,Fremont,OH,43420,4193327985,KROGER,41.36442,-83.13311
01600538,Kroger - Pickerington,1045 Hill Rd N,Pickerington,OH,43147,6147592761,KROGER,39.9067394,-82.7794258
01600542,Kroger - Logan,31550 Chieftain Dr,Logan,OH,43138,7403803236,KROGER,39.5462844,-82.4340922
01600543,Kroger - Main Taylor,8460 E Main St,Reynoldsburg,OH,43068,6145520777,KROGER,39.9568784,-82.7732768
01600546,Kroger - Johnstown,800 W Coshocton St,Johnstown,OH,43031,7409668300,KROGER,40.147049,-82.7076001
01600548,Kroger Marketplace - Perrysburg Marketplace,27322 Carronade Dr,Perrysburg,OH,43551,5673364658,KROGER,41.5448493,-83.5981216
01600549,Kroger Marketplace - Marysville Marketplace,1501 W 5th St,Marysville,OH,43040,9372092448,KROGER,40.241643,-83.395209
01600557,Kroger - Ashland Road,1060 Ashland Rd,Mansfield,OH,44905,4195893147,KROGER,40.7740746,-82.475837
01600558,Kroger - Bellaire,400 28Th St,Bellaire,OH,43906,7406715164,KROGER,40.0115573,-80.7474904
01600562,Kroger - Mt DeChantal,200 Mount De Chantal Rd,Wheeling,WV,26003,3042335480,KROGER,40.0738199,-80.6996599
01600569,Kroger - Brewers Yard,150 W Sycamore St,Columbus,OH,43215,6143407979,KROGER,39.9496665,-83.0019303
01600575,Kroger - Portsmouth,811 Gay St,Portsmouth,OH,45662,7403548621,KROGER,38.736087,-82.9955819
01600581,Kroger Marketplace - Sawmill Rd,7625 Sawmill Rd,Dublin,OH,43016,6149232333,KROGER,40.1217877,-83.0926243
01600587,Kroger - Short North Kroger 587,1350 N High St,Columbus,OH,43201,6142942545,KROGER,39.9892939,-83.0052871
01600590,Kroger - Jackson,530 E Main St,Jackson,OH,45640,7402865017,KROGER,39.0481938,-82.6300991
01600591,Kroger - Pataskala,350 E Broad St,Pataskala,OH,43062,7409645100,KROGER,40.006405,-82.664155
01600593,Kroger - Kroger Northland Village,1745 Morse Rd,Columbus,OH,43229,6144059400,KROGER,40.05857,-82.973138
01600594,Kroger - Tiffin,790 W Market St,Tiffin,OH,44883,4194478199,KROGER,41.1128263,-83.2084353
01600598,Kroger - Soldano Blvd,3600 Soldano Blvd,Columbus,OH,43228,6142748135,KROGER,39.9567701,-83.0968994
01600617,Kroger - Suder Avenue,4633 Suder Ave,Toledo,OH,43611,4197272640,KROGER,41.7056319,-83.5006105
01600621,Kroger - Hebron,600 E Main St,Hebron,OH,43025,7409280795,KROGER,39.9598096,-82.4759865
01600623,Kroger - W Broad,5800 W Broad St,Galloway,OH,43119,6148704350,KROGER,39.9519139,-83.1563351
01600641,Kroger - Port Clinton,2028 East Harbor Rd,Port Clinton,OH,43452,4197345597,KROGER,41.5139574,-82.9023791
01600664,Kroger - Wheelersburg,9101 Ohio River Rd,Wheelersburg,OH,45694,7405742171,KROGER,38.7130139,-82.8580517
01600800,Kroger - Mt Gilead,555 W Marion Rd,Mount Gilead,OH,43338,4199479191,KROGER,40.5472654,-82.8465263
01600801,Kroger Pharmacy - Fairfield Medical Ctr N Ewing Street,401 N Ewing St,Lancaster,OH,43130,7406541019,KROGER,39.717616,-82.577522
01600802,Kroger - Sunbury,131 State Route 3,Sunbury,OH,43074,7409650500,KROGER,40.2462815,-82.8686806
01600803,Kroger - Weirton,100 Saint Thomas Dr,Weirton,WV,26062,3047235165,KROGER,40.3967719,-80.5540849
01600804,Kroger - Houk Road,801 N Houk Rd,Delaware,OH,43015,7403627476,KROGER,40.312909,-83.110079
01600805,Kroger Marketplace - Lewis Center,6417 Columbus Pike,Lewis Center,OH,43035,7408881270,KROGER,40.2034124,-83.0264977
01600806,Kroger - Great Eastern,850 S Hamilton Rd,Whitehall,OH,43213,6147592745,KROGER,39.9587281,-82.8756602
01600808,Kroger - Marion-Waldo,1428 Marion Waldo Rd,Marion,OH,43302,7403862919,KROGER,40.5631302,-83.1173348
01600810,Kroger - Alexis Road,833 W Alexis Rd,Toledo,OH,43612,4192696905,KROGER,41.7195775,-83.5634297
01600812,Kroger - St Clairsville,50789 Valley Plaza Dr,Saint Clairsville,OH,43950,7406957164,KROGER,40.0756431,-80.8727375
01600815,Kroger - Great Southern,3637 S High St,Columbus,OH,43207,6144921077,KROGER,39.8879952,-83.0017887
01600817,Kroger - Dublin,7100 Hospital Dr,Dublin,OH,43016,6147604241,KROGER,40.103387,-83.16438
01600818,Kroger - Crown Plaza,2090 Crown Plaza Dr,Columbus,OH,43235,6143265645,KROGER,40.0656864,-83.0734317
01600819,Kroger Marketplace - Graceland,199 Graceland Blvd,Columbus,OH,43214,6144101095,KROGER,40.06528,-83.02481
01600820,Kroger - Mt Vernon,855 Coshocton Ave,Mount Vernon,OH,43050,7403931425,KROGER,40.4010188,-82.4588259
01600822,Kroger - Washington Court House,548 Clinton Ave,Washington Court House,OH,43160,7403354030,KROGER,39.5340291,-83.4459289
01600824,Kroger - Urbana,1637 E Us Highway 36,Urbana,OH,43078,9376522227,KROGER,40.1034728,-83.7200728
01600831,Kroger - Trimble,19471 Lake Dr,Trimble,OH,45782,7407673062,KROGER,39.4835771,-82.0798874
01600832,Kroger - Bellefontaine,2129 S Main St,Bellefontaine,OH,43311,9375991208,KROGER,40.3309865,-83.7603765
01600836,Kroger Marketplace - Lexington Avenue,1500 Lexington Ave,Mansfield,OH,44907,4197566049,KROGER,40.7188147,-82.5492472
01600839,Kroger - Polaris,1177 Polaris Pkwy,Columbus,OH,43240,6144302440,KROGER,40.1400189,-82.9902018
01600842,Kroger - Hoover Road,5965 Hoover Rd,Grove City,OH,43123,6142773400,KROGER,39.841483,-83.0748545
01600844,Kroger - Circleville,175 Lancaster Pike,Circleville,OH,43113,7404775700,KROGER,39.5979336,-82.9313762
01600847,Kroger - Maxtown,7345 State Route 3,Westerville,OH,43082,6147945555,KROGER,40.1496446,-82.9208478
01600851,Kroger - Canal,6095 Gender Rd,Canal Winchester,OH,43110,6148342800,KROGER,39.8557861,-82.8319261
01600853,Kroger - E Broad,7000 E Broad St,Columbus,OH,43213,6145753742,KROGER,39.984384,-82.816476
01600856,Kroger - Fostoria,126 W High St,Fostoria,OH,44830,4194354006,KROGER,41.163322,-83.415531
01600857,Kroger - Columbus Pike,1840 Columbus Pike,Delaware,OH,43015,7403634398,KROGER,40.2645817,-83.0708511
01600858,Kroger Marketplace - Sandusky Marketplace,226 E Perkins Ave,Sandusky,OH,44870,4192392623,KROGER,41.4327101,-82.6943467
01600861,Kroger - Groveport,6011 Groveport Rd,Groveport,OH,43125,6148302010,KROGER,39.853071,-82.899249
01600864,Kroger Marketplace - Bedford Marketplace,3462 Sterns Rd,Lambertville,MI,48144,7348544990,KROGER,41.7509665,-83.6284163
01600867,Kroger - Hilliard-Rome,2525 Hilliard Rome Rd,Hilliard,OH,43026,6147714174,KROGER,40.0025295,-83.1562341
01600870,Kroger - Holland-Sylvania,2257 N Holland Sylvania Rd,Toledo,OH,43615,4195786460,KROGER,41.6625506,-83.6842845
01600871,Kroger - Stoneridge,1365 Stoneridge Dr,Gahanna,OH,43230,6144181524,KROGER,40.0542669,-82.8674889
01600878,Kroger - Bowling Green,1094 N Main St,Bowling Green,OH,43402,4193533919,KROGER,41.3912788,-83.6486711
01600879,Kroger - Worthington Woods,1425 Worthington Centre Dr,Worthington,OH,43085,6148417410,KROGER,40.1227589,-82.9794468
01600880,Kroger - Marion Mt Gilead,1608 Marion Mount Gilead Rd,Marion,OH,43302,7403892212,KROGER,40.5832812,-83.08624
01600881,Kroger - New Albany,5161 Hampsted Village Center Way,Columbus,OH,43054,6148558665,KROGER,40.088852,-82.825837
01600891,Kroger - Zanesville,3387 Maple Ave,Zanesville,OH,43701,7404505414,KROGER,39.9827274,-82.0219037
01600893,Kroger - Moler,1441 Parsons Ave,Columbus,OH,43207,6144455727,KROGER,39.9343317,-82.985385
01600895,Kroger - King and Sylvania,7545 Sylvania Ave,Sylvania,OH,43560,4198412888,KROGER,41.6867137,-83.7243376
01600897,Kroger - E Broad Whitehall,3675 E Broad St,Whitehall,OH,43213,6142370076,KROGER,39.9718358,-82.90313
01600898,Kroger - Powell Rd,3975 Powell Rd,Powell,OH,43065,6148895029,KROGER,40.1569087,-83.0954752
01600901,Kroger - Athens,919 E State St,Athens,OH,45701,7405921598,KROGER,39.3356404,-82.069268
01600907,Kroger Marketplace - Orchard Centre,7059 Orchard Centre Dr,Holland,OH,43528,5672974109,KROGER,41.6084028,-83.7099157
01600920,Kroger - Schrock Rd,55 W Schrock Rd,Westerville,OH,43081,6148908660,KROGER,40.1082451,-82.9275624
01600926,Kroger - Heath,910 Hebron Rd,Heath,OH,43056,7405228338,KROGER,40.0257641,-82.4452617
01600931,Kroger - Main Street,1141 E Main St,Lancaster,OH,43130,7406533244,KROGER,39.716175,-82.579459
01600938,Kroger - Navarre Ave,3301 Navarre Ave,Oregon,OH,43616,4196914607,KROGER,41.6383707,-83.469893
01600940,Kroger - Monroe and Harroun,6235 Monroe St,Sylvania,OH,43560,4198855027,KROGER,41.7148002,-83.6925293
01600942,Kroger - Chambers Rd,1375 Chambers Rd,Columbus,OH,43212,6144881116,KROGER,39.9926801,-83.0439606
01600957,Kroger - Monroe Secor,4533 Monroe St,Toledo,OH,43613,4194719237,KROGER,41.6873051,-83.6214643
01600963,Kroger - Wintersville,858 Main St,Wintersville,OH,43953,7402643248,KROGER,40.3744036,-80.7035521
01600965,Kroger - Sunbury Rd,5991 S Sunbury Rd,Westerville,OH,43081,6148951500,KROGER,40.0845609,-82.8972695
01600966,Kroger - Cemetery Road,4656 Cemetery Rd,Hilliard,OH,43026,6148761151,KROGER,40.033495,-83.140566
01600971,Kroger - Clintonville,3417 N High St,Columbus,OH,43214,6142631766,KROGER,40.0320473,-83.0176247
01600977,Kroger - Moundsville,1212 Lafayette Ave,Moundsville,WV,26041,3048458116,KROGER,39.9109599,-80.7459382
01600982,Kroger - Glendale Avenue,2555 Glendale Ave,Toledo,OH,43614,4193854660,KROGER,41.6114908,-83.6063349
01600990,Kroger - Eakin Road,2161 Eakin Rd,Columbus,OH,43223,6142747717,KROGER,39.9311449,-83.0540544
01600991,Kroger - Loyalty Fulfillment Columbus,6658 Shook Rd,Columbus,OH,43217,9999999999,KROGER,39.8313656,-82.9444667
01600998,Lab Location - Lab Location,6101 W Washington St,Phoenix,AZ,85043,,LAB LOCATION,33.4456722,-112.1927288
01800038,Kroger Fuel - Kroger Fuel,9948 East Grand River,Brighton,MI,48116,9999999999,KROGER,42.5211345,-83.762418
01800074,Kroger Fuel - Kroger Fuel,20705 E 13 Mile Road,Roseville,MI,48066,9999999999,KROGER,42.5252876,-82.9093628
01800115,Kroger - Richfield Center,3838 Richfield Rd,Flint,MI,48506,8107360320,KROGER,43.049785,-83.636507
01800277,Kroger - Midland,2808 Ashman St,Midland,MI,48640,9898358427,KROGER,43.6245613,-84.2283509
01800361,Kroger - Main Center,425 N Center St,Northville,MI,48167,2484684485,KROGER,42.4352538,-83.4840277
01800363,Kroger - Fourteen Mile,39950 W 14 Mile Rd,Commerce Township,MI,48390,2483136620,KROGER,42.5277096,-83.440608
01800364,Kroger - Haggerty,15455 N Haggerty Rd,Plymouth,MI,48170,7342592770,KROGER,42.3974616,-83.4392575
01800365,Kroger - Washtenaw,3615 Washtenaw Ave,Ann Arbor,MI,48104,7342745390,KROGER,42.2582623,-83.6888212
01800366,Kroger - Ten Mile,51847 10 Mile Rd,South Lyon,MI,48178,2486677310,KROGER,42.4621164,-83.561507
01800404,Kroger - Carmen,G3288 Corunna Rd,Flint,MI,48532,8102356435,KROGER,43.0027954,-83.7443797
01800406,Kroger - Burton,1200 E Bristol Rd,Burton,MI,48529,8102346863,KROGER,42.9731275,-83.6864506
01800407,Kroger - Mt Morris,7188 N Saginaw Rd,Mount Morris,MI,48458,8106702840,KROGER,43.1100943,-83.6925448
01800409,Kroger - Grand Blanc,12731 S Saginaw St,Grand Blanc,MI,48439,8106956384,KROGER,42.9201229,-83.618802
01800413,Kroger - Corunna Dye,5249 Corunna Rd,Flint,MI,48532,8107320130,KROGER,43.0004423,-83.7820033
01800415,Kroger Fresh Fare - Grosse Ile,8999 Macomb St,Grosse Ile,MI,48138,7346752070,KROGER,42.129994,-83.157607
01800419,Kroger - Flushing,1542 E Pierson Rd,Flushing,MI,48433,8106593121,KROGER,43.0591364,-83.8154509
01800424,Kroger - Bay City,945 N Euclid Ave,Bay City,MI,48706,9896863590,KROGER,43.6147184,-83.9164824
01800436,Kroger - Frankenmuth,435 N Main St,Frankenmuth,MI,48734,9896522621,KROGER,43.3405065,-83.7365319
01800437,Kroger - Bridgeport,6370 Dixie Hwy,Bridgeport,MI,48722,9897770881,KROGER,43.3530576,-83.8711356
01800440,Kroger Fresh Fare - Maple Lasher,3600 W Maple Rd,Bloomfield Hills,MI,48301,2485300302,KROGER,42.5464177,-83.2624994
01800441,Kroger - Dearborn Heights,26400 Ford Rd,Dearborn Heights,MI,48127,3138273715,KROGER,42.3290109,-83.300081
01800442,Kroger - Northville,17447 Haggerty Rd,Northville,MI,48168,2486623031,KROGER,42.413294,-83.4355429
01800443,Kroger - Eastborn,15255 Michigan Ave,Dearborn,MI,48126,3138274022,KROGER,42.3156052,-83.1921151
01800444,Kroger - Hartland,10059 E Highland Rd,Howell,MI,48843,8109912350,KROGER,42.6350517,-83.7542589
01800447,Kroger - Hazel Park,23101 John R Rd,Hazel Park,MI,48030,2486581641,KROGER,42.4628285,-83.105622
01800448,Kroger - Coolidge,1237 Coolidge Hwy,Troy,MI,48084,2485191320,KROGER,42.542443,-83.189744
01800449,Kroger - Canal Schoenherr,43893 Schoenherr Rd,Sterling Heights,MI,48313,5866851350,KROGER,42.6175509,-82.9945023
01800450,Kroger - Algonac,2600 Pointe Tremble Rd,Algonac,MI,48001,8106714001,KROGER,42.6177818,-82.5484643
01800454,Kroger Fresh Fare - Grosse Pointe Woods,20422 Mack Ave,Grosse Pointe Woods,MI,48236,3133081035,KROGER,42.439152,-82.907046
01800455,Kroger - 13 Mile Gratiot,30851 Gratiot Ave,Roseville,MI,48066,5865413315,KROGER,42.5235759,-82.9229207
01800456,Kroger - Cherry Hill Merriman,200 S Merriman Rd,Westland,MI,48186,7347131122,KROGER,42.309136,-83.3520736
01800458,Kroger - Brownstown,23849 West Rd,Brownstown,MI,48134,7345611205,KROGER,42.136546,-83.264245
01800459,Kroger - Warren Middlebelt,7350 N Middlebelt Rd,Westland,MI,48185,7347931022,KROGER,42.3417,-83.330698
01800461,Kroger - Romeo,64660 Van Dyke Rd,Washington,MI,48095,5865408003,KROGER,42.7706703,-83.0161713
01800463,Kroger - Big Beaver John R,3125 John R Rd,Troy,MI,48083,2486581700,KROGER,42.5653223,-83.1099771
01800464,Kroger - Crooks South,2105 South Blvd W,Troy,MI,48098,2485371010,KROGER,42.6211359,-83.1721587
01800465,Kroger - Imlay City,1821 S Cedar St,Imlay City,MI,48444,8107213260,KROGER,43.0121413,-83.0696902
01800481,Kroger - Orchard Lake,4395 Orchard Lake Rd,West Bloomfield,MI,48323,2486260022,KROGER,42.574081,-83.360771
01800486,Kroger - Hoover 11,26233 Hoover Rd,Warren,MI,48089,5867545562,KROGER,42.486723,-83.007797
01800487,Kroger - Long Lake and Livernois,31 E Long Lake Rd,Troy,MI,48098,2488791040,KROGER,42.593112,-83.1482339
01800492,Kroger - Rochester Hills,65 S Livernois Rd,Rochester Hills,MI,48307,2486524750,KROGER,42.6803827,-83.1514533
01800495,Kroger - St Clair Shores,23191 Marter Rd,Saint Clair Shores,MI,48080,5867712290,KROGER,42.460184,-82.883568
01800515,Kroger - North Port Huron,2907 Krafft Rd,Port Huron,MI,48060,8109879820,KROGER,43.0246414,-82.45429
01800520,Kroger - Ypsilanti,1771 E Michigan Ave,Ypsilanti,MI,48198,7344825615,KROGER,42.2484995,-83.5753303
01800526,Kroger - Milford,670 Highland Ave,Milford,MI,48381,2486851528,KROGER,42.5939579,-83.604164
01800528,Kroger - Garfield,41941 Garfield Rd,Clinton Township,MI,48038,5862639555,KROGER,42.6049501,-82.9547929
01800576,Kroger - Milan,531 W Main St,Milan,MI,48160,7344391140,KROGER,42.0889446,-83.6978522
01800577,Kroger - Dundee,571 E Monroe St,Dundee,MI,48131,7345293242,KROGER,41.9534377,-83.6416822
01800578,Kroger - Monroe,850 S Monroe St,Monroe,MI,48161,7344575500,KROGER,41.9088975,-83.4059892
01800579,Kroger - Frenchtown,3833 N Dixie Hwy,Monroe,MI,48162,7342891070,KROGER,41.9480062,-83.312852
01800600,Kroger - Lapeer,540 S Main St,Lapeer,MI,48446,8106649234,KROGER,43.0442914,-83.322996
01800602,Kroger - Universal Mall,28250 Dequindre Rd,Warren,MI,48092,5865580064,KROGER,42.499619,-83.0830722
01800605,Kroger - Plymouth Nixon,2641 Plymouth Rd,Ann Arbor,MI,48105,7349940600,KROGER,42.304858,-83.70905
01800615,Kroger - 8 Farmington,33523 8 Mile Rd,Livonia,MI,48152,2484716780,KROGER,42.4394217,-83.3820762
01800618,Kroger - 5 Merriman,30935 5 Mile Rd,Livonia,MI,48154,7344211685,KROGER,42.396646,-83.3484779
01800619,Kroger - Halstead Village,37550 W 12 Mile Rd,Farmington Hills,MI,48331,2484893170,KROGER,42.4992821,-83.4187962
01800620,Kroger - Dixie Maybee,6625 Dixie Hwy,Clarkston,MI,48346,2486208700,KROGER,42.716825,-83.416074
01800622,Kroger - Metro Crocker,26300 Crocker Blvd,Harrison Township,MI,48045,5869540400,KROGER,42.5700342,-82.850733
01800630,Kroger - Michigan Merriman,31300 Michigan Ave,Westland,MI,48186,7343266981,KROGER,42.287211,-83.347245
01800632,Kroger - Novi,47650 Grand River Ave,Novi,MI,48374,2483749706,KROGER,42.4918727,-83.5184812
01800634,Kroger - Walled Lake,47060 W Pontiac Trl,Commerce Township,MI,48390,2489607730,KROGER,42.5264004,-83.5148759
01800635,Kroger - Essexville,2910 Center Ave,Essexville,MI,48732,9898928037,KROGER,43.5928971,-83.8463583
01800637,Kroger - Lake Orion,460 N Lapeer Rd,Lake Orion,MI,48362,2486930486,KROGER,42.7900304,-83.2439908
01800638,Kroger - Brighton,9968 E Grand River Ave,Brighton,MI,48116,8102256200,KROGER,42.5194418,-83.7625783
01800639,Kroger - South Lyon,20730 Pontiac Trl,South Lyon,MI,48178,2484869133,KROGER,42.4327017,-83.6473563
01800642,Kroger - Royal Oak Twp,8920 W 8 Mile Rd,Ferndale,MI,48220,2484143790,KROGER,42.446835,-83.15995
01800649,Kroger - Waldon Baldwin,3097 S Baldwin Rd,Orion,MI,48359,2483930765,KROGER,42.734238,-83.305283
01800650,Kroger - Oakland,4888 N Adams Rd,Rochester,MI,48306,2482762541,KROGER,42.7265318,-83.1992266
01800651,Kroger - Sashabaw,5990 Sashabaw Rd,Clarkston,MI,48346,2489223164,KROGER,42.7223064,-83.3760863
01800656,Kroger Fresh Fare - Bloomfield Plaza,4099 Telegraph Rd,Bloomfield Hills,MI,48302,2486472204,KROGER,42.5804088,-83.2792701
01800658,Kroger - 12 Evergreen,19855 W 12 Mile Rd,Southfield,MI,48076,2485599829,KROGER,42.5003676,-83.2406444
01800661,Kroger - 11 Middlebelt,25780 Middlebelt Rd,Farmington Hills,MI,48336,2484714444,KROGER,42.483617,-83.337053
01800663,Kroger - Frazho Gratiot,26130 Gratiot Ave,Roseville,MI,48066,5867768172,KROGER,42.488056,-82.940795
01800670,Kroger - Plymouth,44525 Ann Arbor Rd W,Plymouth,MI,48170,7344148670,KROGER,42.3572982,-83.4818476
01800671,Kroger - Canton,1905 N Canton Center Rd,Canton,MI,48187,7348448910,KROGER,42.3194296,-83.4918564
01800675,Kroger - Waterford,5111 Highland Rd,Waterford,MI,48327,2486731629,KROGER,42.6588979,-83.3871099
01800680,Kroger - Jackson,1100 W Argyle St,Jackson,MI,49202,5177885354,KROGER,42.2635662,-84.4266767
01800681,Kroger - Hillsdale,290 W Carleton Rd,Hillsdale,MI,49242,5174390800,KROGER,41.9324691,-84.6433033
01800684,Kroger - 21 Card,21555 21 Mile Rd,Macomb,MI,48044,5864210768,KROGER,42.64489,-82.898421
01800685,Kroger - Birmingham,685 E Maple Rd,Birmingham,MI,48009,2487231151,KROGER,42.5472653,-83.2105627
01800686,Kroger - Taylor,7000 Monroe Blvd,Taylor,MI,48180,3132991725,KROGER,42.257682,-83.251249
01800688,Kroger - Westgate,400 S Maple Rd,Ann Arbor,MI,48103,7342132340,KROGER,42.27757,-83.78211
01800689,Kroger - Carpenter Packard,3200 Carpenter Rd,Ypsilanti,MI,48197,7349717148,KROGER,42.24277,-83.6821497
01800691,Kroger - Westland,36430 Ford Rd,Westland,MI,48185,7345956638,KROGER,42.3261149,-83.4001833
01800693,Kroger - Lincoln Park,2060 Dix Hwy,Lincoln Park,MI,48146,3133867189,KROGER,42.2549204,-83.1954836
01800697,Kroger - Westborn,23303 Michigan Ave,Dearborn,MI,48124,3135621762,KROGER,42.3007844,-83.2619363
01800703,Kroger - Michigan Canton,45540 Michigan Ave,Canton,MI,48188,7343972368,KROGER,42.2742085,-83.4882238
01800704,Kroger - 25 Dequindre,2058 25 Mile Rd,Shelby Township,MI,48316,2486511039,KROGER,42.6957849,-83.0932344
01800706,Kroger - Richmond,66900 Gratiot Ave,Richmond,MI,48062,5867270125,KROGER,42.7938464,-82.7344365
01800707,Kroger - Whittaker,2010 Whittaker Rd,Ypsilanti,MI,48197,7345471790,KROGER,42.2120939,-83.6209907
01800708,Kroger - Gibraltar,20645 Gibraltar Rd,Brownstown Twp,MI,48183,7346750451,KROGER,42.093487,-83.2345789
01800709,Kroger - Davisburg,9741 Dixie Hwy,Clarkston,MI,48348,2489220416,KROGER,42.7571904,-83.483433
01800710,Kroger - Harper Woods,20903 Harper Ave,Harper Woods,MI,48225,3136420823,KROGER,42.4497882,-82.9158888
01800711,Kroger - Swartz Creek,7084 Miller Rd,Swartz Creek,MI,48473,8106300575,KROGER,42.9640754,-83.8151497
01800714,Kroger - Davison,700 N State Rd,Davison,MI,48423,8106534175,KROGER,43.036342,-83.516262
01800715,Kroger - South Port Huron,1215 24Th St,Port Huron,MI,48060,8109879420,KROGER,42.9704268,-82.4549341
01800716,Kroger - 26 Mile,16450 26 Mile Rd,Macomb,MI,48042,5866778725,KROGER,42.7141916,-82.9630513
01800720,Kroger - Howell,108 W Highland Rd,Howell,MI,48843,5175520126,KROGER,42.6243613,-83.9274952
01800721,Kroger - Pinckney,9700 Chilson Cmns,Pinckney,MI,48169,7342137970,KROGER,42.4620602,-83.8310417
01800724,Kroger - New Baltimore,35000 23 Mile Rd,New Baltimore,MI,48047,5867255660,KROGER,42.6746106,-82.7580919
01800729,Kroger - Commerce Twp,2906 Union Lake Rd,Commerce Township,MI,48382,2487796200,KROGER,42.594102,-83.443958
01800737,Kroger Marketplace - Shelby Marketplace,14945 23 Mile Rd,Shelby Township,MI,48315,5869307010,KROGER,42.673757,-82.976751
01800738,Kroger - Saginaw Twp,4672 State St,Saginaw,MI,48603,9899216221,KROGER,43.4376584,-84.0090637
01800743,Kroger Marketplace - Kroger Marketplace - Royal Oak,2200 E 12 Mile Rd,Royal Oak,MI,48067,2483971520,KROGER,42.501614,-83.119294
01800749,Kroger - St Clair Shores on Harper Ave,22801 Harper Ave,Saint Clair Shores,MI,48080,5868005200,KROGER,42.465143,-82.910799
01800751,Kroger - Kroger Oak Park,26200 Greenfield Rd,Oak Park,MI,48237,2487218670,KROGER,42.4841667,-83.2001267
01800754,Kroger Marketplace - Stoney Creek,7644 26 Mile Rd,Shelby Township,MI,48316,5866978230,KROGER,42.710643,-83.038062
01800757,Kroger Marketplace - Kroger Marketplace - Sterling Heights,2051 18 Mile Rd,Sterling Heights,MI,48314,5869300730,KROGER,42.594689,-83.08863
01800759,Kroger Marketplace - Kroger White Lake,10951 Highland Rd,White Lake,MI,48386,2487796470,KROGER,42.647913,-83.502608
01800774,Kroger - 13 Mile Little Mack,20891 E 13 Mile Rd,Roseville,MI,48066,5862983850,KROGER,42.5262881,-82.9053329
01800775,Kroger - Kroger Southgate,16705 Fort St,Southgate,MI,48195,7342869210,KROGER,42.1858419,-83.1866286
01800776,Kroger - Kroger Shoenherr,31200 Schoenherr Rd,Warren,MI,48092,5862384560,KROGER,42.5240983,-82.9861317
01800784,Kroger - Grosse Pointe,16919 Kercheval Ave,Grosse Pointe Park,MI,48230,3138846035,KROGER,42.389913,-82.917489
01800793,Kroger - Okemos,4884 Marsh Rd,Okemos,MI,48864,5173470100,KROGER,42.7235033,-84.412821
01800795,Kroger - Owosso,1315 E M 21,Owosso,MI,48867,9897291355,KROGER,42.9997157,-84.1471468
01800811,Kroger - St Johns,900 S US Highway 27,Saint Johns,MI,48879,9892246841,KROGER,42.99197,-84.548665
01800852,Kroger - Frandor,443 Mall Ct,Lansing,MI,48912,5173322090,KROGER,42.73851,-84.507486
01800884,Kroger - Holmes Logan,921 W Holmes Rd,Lansing,MI,48910,5173936622,KROGER,42.6950021,-84.5652686
01800887,Kroger - Holt,2495 Cedar St,Holt,MI,48842,5176944119,KROGER,42.6542682,-84.5342633
01800888,Kroger - Delta,6430 W Saginaw Hwy,Lansing,MI,48917,5178861060,KROGER,42.742644,-84.644243
01800890,Kroger - East Lansing,1550 W Lake Lansing Rd,East Lansing,MI,48823,5173519361,KROGER,42.7623119,-84.5051057
01800990,Kroger - Loyalty Fulfillment Detriot,15675 Wahrman Rd,Romulus,MI,48174,9999999999,KROGER,42.1891974,-83.3840804
02100001,Kroger - Indy Downtown,524 E 16Th St,Indianapolis,IN,46202,3179236858,KROGER,39.7892121,-86.1481049
02100016,Kroger - West Michigan,2630 W Michigan St,Indianapolis,IN,46222,3176322113,KROGER,39.7757725,-86.2046486
02100066,Kroger - Westgate Plaza,5173 W Washington St,Indianapolis,IN,46241,3172442290,KROGER,39.7526095,-86.2467582
02100071,Kroger - Maplecrest Plaza Kroger,2821 S Washington St,Kokomo,IN,46902,7654537556,KROGER,40.454248,-86.131256
02100086,Kroger - 65th Keystone Kroger,2629 E 65th St,Indianapolis,IN,46220,3172551498,KROGER,39.875377,-86.118948
02100091,Kroger - Seminary Square,528 S College Ave,Bloomington,IN,47403,8123393351,KROGER,39.1598625,-86.5356065
02100096,Kroger - Rushville,202 S Main St,Rushville,IN,46173,7659325511,KROGER,39.606164,-85.4430252
02100100,Kroger - 10th Shortridge,7101 E 10Th St,Indianapolis,IN,46219,3173521721,KROGER,39.7808002,-86.0419191
02100109,Kroger - Dixon Road Kroger,605 N Dixon Rd,Kokomo,IN,46901,7654572514,KROGER,40.492186,-86.166237
02100110,Kroger - Marwood,3361 Kentucky Ave,Indianapolis,IN,46221,3172401580,KROGER,39.7145622,-86.2350196
02100116,Kroger - Twin Aire,680 Twin Aire Dr,Indianapolis,IN,46203,3172641762,KROGER,39.7577922,-86.1149198
02100118,Kroger - Plainfield Plaza,1930 E Main St,Plainfield,IN,46168,3178397961,KROGER,39.712073,-86.3754749
02100138,Kroger - Monticello Kroger,916 N Main St,Monticello,IN,47960,5745837896,KROGER,40.7568674,-86.7666627
02100215,Kroger - Brownsburg,975 N Green St,Brownsburg,IN,46112,3178526076,KROGER,39.856306,-86.389359
02100248,Kroger - Forest Park Plaza,100 Forest Park Plz,Brazil,IN,47834,8124462231,KROGER,39.524706,-87.115888
02100317,Kroger - Canton,1741 E Chestnut St,Canton,IL,61520,3096471598,KROGER,40.557523,-90.00565
02100330,Kroger - Bloomington,1825 Kinser Pike,Bloomington,IN,47404,8123356760,KROGER,39.1877202,-86.5400509
02100332,Kroger - Kroger Michigan Rd and 106,10679 N Michigan Rd,Zionsville,IN,46077,3177332560,KROGER,39.943416,-86.236097
02100333,Kroger - Kroger Boone Village,5 Boone Vlg,Zionsville,IN,46077,3178732366,KROGER,39.95092,-86.27676
02100336,Payless Super Market - Payless McGalliard,1500 W McGalliard Rd,Muncie,IN,47304,7657511500,PAYLESS,40.220425,-85.404581
02100338,Payless Super Market - Kroger Tillotson,715 S Tillotson Ave,Muncie,IN,47304,7652131200,PAYLESS,40.18764,-85.421457
02100339,Kroger - Kroger Indianapolis,227 W Michigan St,Indianapolis,IN,46204,3172625215,KROGER,39.7751497,-86.1635739
02100347,Kroger - College Avenue,1550 E College Ave,Normal,IL,61761,3094527476,KROGER,40.5118284,-88.9561112
02100405,Kroger - North Clinton,4120 N Clinton St,Fort Wayne,IN,46805,2604847021,KROGER,41.1153329,-85.1293036
02100407,Kroger - Decatur,929 S 13Th St,Decatur,IN,46733,2607249925,KROGER,40.8195723,-84.9359387
02100410,Kroger - Waynedale,7008 Bluffton Rd,Fort Wayne,IN,46809,2607474161,KROGER,41.0177854,-85.1700156
02100412,Kroger - West State,1125 W State Blvd,Fort Wayne,IN,46808,2604263453,KROGER,41.094969,-85.1573858
02100414,Kroger - Bluffton,1555 S Harrison Plz,Bluffton,IN,46714,2608243700,KROGER,40.7204247,-85.1672322
02100418,Kroger - Kendallville,310 W North St,Kendallville,IN,46755,2603479155,KROGER,41.453011,-85.2718497
02100424,Kroger - Chestnut Plaza,10230 Chestnut Plaza Dr,Fort Wayne,IN,46814,2606256031,KROGER,41.0766873,-85.2761883
02100425,Kroger - Georgetown,6310 E State Blvd,Fort Wayne,IN,46815,2607495102,KROGER,41.0999773,-85.0590253
02100427,Kroger - Rochester,2040 Peace Tree Vlg,Rochester,IN,46975,5746887070,KROGER,41.0523808,-86.2208984
02100500,Kroger - Speedway Plaza,5718 Crawfordsville Rd,Indianapolis,IN,46224,3172405000,KROGER,39.799522,-86.261061
02100531,Kroger - Bartonville Square,1405 W Garfield Ave,Bartonville,IL,61607,3096978811,KROGER,40.6462452,-89.6750279
02100537,Kroger - Rolla,605 W 4Th St,Rolla,MO,65401,5733642721,KROGER,37.9467154,-91.7762367
02100647,Kroger - Morton Village Shopping Center,1001 W Jackson St,Morton,IL,61550,3092665366,KROGER,40.6211009,-89.4709273
02100657,Kroger - Cherry Tree Shopping Center,20 Cherry Tree Shopping Ctr,Washington,IL,61571,3094448585,KROGER,40.706467,-89.4468667
02100677,Kroger - Chillicothe,605 S 4th St,Chillicothe,IL,61523,3092746281,KROGER,40.902739,-89.495483
02100704,Kroger - Kroger Ottawa,2701 Columbus St,Ottawa,IL,61350,8154344400,KROGER,41.370338,-88.838075
02100705,Kroger - East Peoria,201 S Main St,East Peoria,IL,61611,3096946298,KROGER,40.6646016,-89.5808218
02100710,Kroger Marketplace - Columbus Marketplace,3060 N National Rd,Columbus,IN,47201,8123769451,KROGER,39.2280428,-85.9023068
02100724,Kroger - Troy Square,1 Troy Sq,Troy,MO,63379,6365288423,KROGER,38.9884936,-90.976085
02100735,Kroger - Smokey Row Kroger,5961 N State Road 135,Greenwood,IN,46143,3175303086,KROGER,39.562096,-86.155648
02100804,Kroger - 71st Binford,5810 E 71St St,Indianapolis,IN,46220,3178459653,KROGER,39.8848466,-86.0689009
02100814,Payless Super Market - Cross Street Payless,1845 N Scatterfield Rd,Anderson,IN,46012,7656492276,PAYLESS,40.133221,-85.661176
02100816,Payless Super Market - Applewood Payless,1900 Applewood Center Dr,Anderson,IN,46013,7656493446,PAYLESS,40.05763,-85.6565806
02100820,Kroger - Linwood Plaza,4445 E 10Th St,Indianapolis,IN,46201,3173591166,KROGER,39.7792825,-86.0936388
02100822,Payless Super Market - Beck Lane Payless,65 Beck Ln,Lafayette,IN,47909,7654740677,PAYLESS,40.3861525,-86.9025379
02100824,Payless Super Market - W Lafayette Payless,1032 Sagamore Pkwy W,West Lafayette,IN,47906,7654631556,PAYLESS,40.4553245,-86.9174333
02100827,Payless Super Market - Maple Point Payless,2513 Maple Point Dr,Lafayette,IN,47905,7654477533,PAYLESS,40.389134,-86.845213
02100837,Kroger - Kroger Warsaw,2211 E Center St,Warsaw,IN,46580,5742678848,KROGER,41.239491,-85.826686
02100841,Kroger - Kroger Huntington,2718 Guilford St,Huntington,IN,46750,2603561811,KROGER,40.8998128,-85.5082001
02100842,Kroger - Kroger Ligonier,903 Lincolnway S,Ligonier,IN,46767,2603617007,KROGER,41.4582556,-85.5849008
02100843,Payless Super Market - Payless on Greenbush,2200 Greenbush St,Lafayette,IN,47904,7654474693,PAYLESS,40.4336444,-86.8699777
02100848,Payless Super Market - Meridian Street Payless,3050 Meridian St,Anderson,IN,46016,7656447702,PAYLESS,40.0855707,-85.6784333
02100856,Kroger - Main Street,1502 N Main St,Bloomington,IL,61701,3098285640,KROGER,40.4942042,-88.9948284
02100857,Kroger - New Haven,821 Lincoln Hwy W,New Haven,IN,46774,2607494828,KROGER,41.0688777,-85.0412966
02100862,Kroger - Sunnyside,11101 Pendleton Pike,Indianapolis,IN,46236,3178233240,KROGER,39.861992,-85.97021
02100864,Kroger - Whiteland,2200 Independence Dr,Greenwood,IN,46143,3178834140,KROGER,39.583908,-86.102744
02100869,Kroger Marketplace - 116th Olio Road,11700 Olio Road,Fishers,IN,46037,3175988400,KROGER,39.9577601,-85.9186702
02100874,Kroger - Columbia City,621 Country Side Dr,Columbia City,IN,46725,2602443290,KROGER,41.1718108,-85.4824052
02100875,Kroger - Wabash Kroger,1309 N Cass St,Wabash,IN,46992,2605632616,KROGER,40.8158535,-85.8337123
02100879,Kroger - Goshen,209 Chicago Ave,Goshen,IN,46526,5745339949,KROGER,41.5873538,-85.844172
02100886,Kroger - Hively,130 W Hively Ave,Elkhart,IN,46517,5742946130,KROGER,41.661767,-85.9662341
02100888,Kroger - Grand Plaza Shopping Center,201 E Bidwell St,Taylorville,IL,62568,2178242911,KROGER,39.560418,-89.294203
02100889,Kroger - Town Country,2330 Hickory Rd,Mishawaka,IN,46545,5742554488,KROGER,41.6812511,-86.1957761
02100890,Kroger - Loyalty Fulfillment Indianapolis,9222 E 33rd St,Indianapolis,IN,46235,9999999999,KROGER,39.818066,-86.004202
02100894,Kroger Marketplace - Claybrooke Commons,8745 S Emerson Ave,Indianapolis,IN,46237,3178843320,KROGER,39.6394349,-86.0811469
02100895,Kroger - 116th Cumberland Road,9799 E 116Th St,Fishers,IN,46037,3179135500,KROGER,39.9548712,-85.9961063
02100900,Kroger - Bloomington South,4025 S Old State Road 37,Bloomington,IN,47401,8128037240,KROGER,39.1202673,-86.5293917
02100901,Kroger - Western,4526 W Western Ave,South Bend,IN,46619,5742880471,KROGER,41.6701093,-86.311082
02100902,Kroger - Peru Kroger,930 W Main St,Peru,IN,46970,7654721274,KROGER,40.7461832,-86.095908
02100903,Kroger - Ireland,1217 E Ireland Rd,South Bend,IN,46614,5742910666,KROGER,41.6304983,-86.232032
02100905,Kroger - West Pointe Commons,8150 Rockville Rd,Indianapolis,IN,46214,3172719591,KROGER,39.765706,-86.305982
02100906,Kroger - Willow Lake Plaza,2550 Lake Circle Dr,Indianapolis,IN,46268,3178792460,KROGER,39.913772,-86.20546
02100907,Kroger - Martinsville,380 E Ruth Rusie Way,Martinsville,IN,46151,7653427151,KROGER,39.4120332,-86.4255569
02100909,Kroger - Meridian Park,3100 Meridian Parke Dr,Greenwood,IN,46142,3178875745,KROGER,39.618869,-86.159976
02100911,Kroger - Ft Harrison Kroger,2140 Fort Harrison Rd,Terre Haute,IN,47804,8124666861,KROGER,39.5077907,-87.3842228
02100914,Kroger - Richmond,3701 National Rd E,Richmond,IN,47374,7659351244,KROGER,39.8292847,-84.8507171
02100915,Kroger - Elkhart,901 Johnson St,Elkhart,IN,46514,5742624491,KROGER,41.6946777,-85.9674357
02100917,Kroger - Lake Street,801 W Lake Ave,Peoria,IL,61614,3096822173,KROGER,40.7414064,-89.6042446
02100918,Kroger - Lindbergh Drive,9219 N Lindbergh Dr,Peoria,IL,61615,3096918701,KROGER,40.7998179,-89.6117665
02100920,Kroger - Trojan Plaza,120 S Memorial Dr,New Castle,IN,47362,7655297396,KROGER,39.9302526,-85.3796051
02100921,Kroger - Mooresville,530 S Indiana St,Mooresville,IN,46158,3178310241,KROGER,39.6049052,-86.3767898
02100922,Kroger - Brettwood Village,3070 N Water St,Decatur,IL,62526,2178751296,KROGER,39.8779267,-88.952885
02100923,Kroger - Pekin,1607 Broadway St,Pekin,IL,61554,3093535300,KROGER,40.5688641,-89.6284805
02100924,Kroger - South Shores,255 W 1st Dr,Decatur,IL,62521,2174294998,KROGER,39.8214416,-88.9579138
02100927,Kroger - Southern Plaza,4202 S East St,Indianapolis,IN,46227,3177814245,KROGER,39.705573,-86.150698
02100928,Kroger - Jackson Creek,1175 S College Mall Rd,Bloomington,IN,47401,8123335766,KROGER,39.1537098,-86.4952801
02100929,Kroger - Southgate Plaza,218 E Pettit Ave,Fort Wayne,IN,46806,2607457800,KROGER,41.036179,-85.134261
02100933,Kroger - Ottawa South,301 E Mckinley Rd,Ottawa,IL,61350,8154342001,KROGER,41.3236542,-88.8360123
02100936,Kroger - Defiance,1890 E 2Nd St,Defiance,OH,43512,4197845742,KROGER,41.2837944,-84.3282258
02100938,Kroger - Merrifield,906 S Merrifield Ave,Mishawaka,IN,46544,5742561229,KROGER,41.6535893,-86.1656694
02100940,Kroger - Lebanon,2420 N Lebanon St,Lebanon,IN,46052,7654827274,KROGER,40.0694,-86.474554
02100942,Kroger - Sterling Bazaar,3311 N Sterling Ave,Peoria,IL,61604,3096792850,KROGER,40.7278586,-89.6338988
02100943,Kroger - Oakland,2507 E Oakland Ave,Bloomington,IL,61701,3096625396,KROGER,40.4718749,-88.9543931
02100944,Kroger - 116th Allisonville Road,7272 Fishers Crossing Dr,Fishers,IN,46038,3175790201,KROGER,39.958609,-86.041368
02100945,Kroger - East Washington,10450 E Washington St,Indianapolis,IN,46229,3178952245,KROGER,39.776627,-85.981621
02100946,Kroger - Mt Zion,1818 Airport Plz,Decatur,IL,62521,2178645031,KROGER,39.8205993,-88.8819432
02100947,Kroger - Danville Shopping Center,785 E Main St,Danville,IN,46122,3177458020,KROGER,39.756901,-86.509336
02100948,Kroger - Crawfordsville Square,1660 Crawfordsville Square Dr,Crawfordsville,IN,47933,7653621084,KROGER,40.02181,-86.900954
02100952,Kroger - Greenfield,1571 N State St,Greenfield,IN,46140,3174623451,KROGER,39.8060736,-85.7667669
02100953,Kroger - Sterling Locust Street,2301 Locust St,Sterling,IL,61081,8156256405,KROGER,41.8092328,-89.7009851
02100957,Kroger - Noblesville,172 W Logan St,Noblesville,IN,46060,3177763344,KROGER,40.049903,-86.0197449
02100959,Kroger - Carmel Rangeline Road,1217 S Rangeline Rd,Carmel,IN,46032,3178464818,KROGER,39.9626058,-86.1253498
02100960,Kroger - Highland Village,500 S Liberty Dr,Bloomington,IN,47403,8123491385,KROGER,39.1626033,-86.5805358
02100961,Kroger - Greencastle,821 Indianapolis Rd,Greencastle,IN,46135,7656538032,KROGER,39.645654,-86.8478
02100962,Kroger - 71st Georgetown,5025 W 71st St,Indianapolis,IN,46268,3173478480,KROGER,39.880687,-86.246119
02100963,Kroger - Plymouth,2001 N Michigan St,Plymouth,IN,46563,5749362040,KROGER,41.3581574,-86.3135178
02100965,Kroger - Geist Plaza,9835 Fall Creek Rd,Indianapolis,IN,46256,3175773481,KROGER,39.8977178,-85.9938276
02100966,Kroger - LaPorte,55 Pine Lake Ave,Laporte,IN,46350,2193621591,KROGER,41.6146564,-86.7262024
02100970,Kroger - 161st Spring Mill Kroger,150 W 161St St,Westfield,IN,46074,3178676314,KROGER,40.0219555,-86.1614019
02100972,Kroger Marketplace - Dupont Village Marketplace,601 E Dupont Rd,Fort Wayne,IN,46825,2606374504,KROGER,41.1796728,-85.1331647
02100973,Kroger - St Joe Center,6002 Saint Joe Center Rd,Fort Wayne,IN,46835,2604859611,KROGER,41.1331416,-85.0651037
02100974,Kroger - Shelbyville,1601 E Michigan Rd,Shelbyville,IN,46176,3174212350,KROGER,39.5177121,-85.7545916
02100979,Kroger Marketplace - Kroger Marketplace Franklin,970 N Morton St,Franklin,IN,46131,3177366004,KROGER,39.488689,-86.067105
02100980,Kroger - Hazel Dell Crossing Kroger,14800 Hazel Dell Xing,Noblesville,IN,46062,3178441004,KROGER,40.0032906,-86.0680296
02100981,Kroger - Kroger Plaza Terre Haute,2650 Wabash Ave,Terre Haute,IN,47803,8122324519,KROGER,39.472939,-87.377247
02100982,Kroger - Streator,2399 N Bloomington St,Streator,IL,61364,8156727871,KROGER,41.1492535,-88.833386
02100983,Kroger - Carey Road Kroger,17447 Carey Rd,Westfield,IN,46074,3178671002,KROGER,40.040947,-86.1054867
02100984,Kroger - Bourbonnais,633 Armour Rd,Bourbonnais,IL,60914,8159351650,KROGER,41.1638537,-87.8718982
02100985,Kroger - Avon,108 N Avon Ave,Avon,IN,46123,3172724130,KROGER,39.764633,-86.401149
02100987,Kroger - Wabash Valley Plaza US41 South,4714 S US Highway 41,Terre Haute,IN,47802,8122358141,KROGER,39.408507,-87.408593
02100989,Kroger - Kroger Southport and Franklin Rd,8130 E Southport Rd,Indianapolis,IN,46259,3172454453,KROGER,39.6686363,-86.0220336
02100990,Kroger Marketplace - Village Of Coventry,5725 Coventry Ln,Fort Wayne,IN,46804,2604322305,KROGER,41.034139,-85.259299
02100991,Kroger - Auburn,1005 W 7Th St,Auburn,IN,46706,2609202165,KROGER,41.3645251,-85.072349
02100992,Kroger - Madison Edgewood,5911 Madison Ave,Indianapolis,IN,46227,3177834947,KROGER,39.6803674,-86.129457
02100993,Kroger - Bluff Southport,1330 W Southport Rd,Indianapolis,IN,46217,3178844245,KROGER,39.665062,-86.182627
02100995,Kroger Marketplace - Ross Park,5350 E Thompson Rd,Indianapolis,IN,46237,3177813560,KROGER,39.6960329,-86.0764127
02100998,Kroger - Nora Kroger,1365 E 86th St,Indianapolis,IN,46240,3172171190,KROGER,39.911294,-86.137924
02400001,Jay C - Scottsburg,400 N Gardner St,Scottsburg,IN,47170,8127525772,JAYC,38.691315,-85.78099
02400008,Jay C - Columbus,4290 W Jonathan Moore Pike,Columbus,IN,47201,8123429273,JAYC,39.200957,-85.972277
02400014,Jay C Food Plus - Corydon,389 Old Capital Plaza NW,Corydon,IN,47112,8127383225,JAYC,38.22702,-86.1346129
02400015,Jay C - Osgood,711 S Buckeye St,Osgood,IN,47037,8126894082,JAYC,39.12365,-85.28708
02400017,Jay C - Milan,807 N Warpath Dr,Milan,IN,47031,8126542405,JAYC,39.131322,-85.128616
02400035,Jay C - West Baden Springs,8276 W State Road 56,West Baden Springs,IN,47469,8129369890,JAYC,38.562981,-86.614369
02400052,Jay C - Shoals,201 High St,Shoals,IN,47581,8122470507,JAYC,38.665043,-86.792127
02400053,Jay C - Brownstown,908 W Commerce St,Brownstown,IN,47220,8123584106,JAYC,38.879369,-86.054021
02400055,Jay C - Washington,20 Cherry Tree Plz,Washington,IN,47501,8122544985,JAYC,38.6519187,-87.1530301
02400056,Jay C - Odon,309 W Main St,Odon,IN,47562,8126360101,JAYC,38.842105,-86.993921
02400057,Jay C Food Plus - Charlestown,9501 County Road 403,Charlestown,IN,47111,8122566805,JAYC,38.453458,-85.673259
02400070,Jay C - Petersburg,323 W Main St,Petersburg,IN,47567,8123549077,JAYC,38.483426,-87.292119
02400073,Jay C - Jay C Seymour West Tipton,1181 W Tipton St,Seymour,IN,47274,8125222883,JAYC,38.951838,-85.902273
02400077,Jay C - English,663 E State Road 64,English,IN,47118,8123382160,JAYC,38.352024,-86.450095
02400079,Jay C - Edinburgh,15801 N US Highway 31,Edinburgh,IN,46124,8125266897,JAYC,39.342805,-85.973678
02400081,Jay C Food Plus - Jay C Floyds Knobs,815 Highlander Point Dr,Floyds Knobs,IN,47119,8129235074,JAYC,38.317823,-85.899495
02400083,Jay C - North Vernon,2325 N State Highway 3,North Vernon,IN,47265,8123468132,JAYC,39.019541,-85.642333
02400084,Jay C - Vincennes,1400 Washington Ave,Vincennes,IN,47591,8128869311,JAYC,38.682427,-87.514799
02400086,Jay C - Salem 86,601 S Main St,Salem,IN,47167,8128831641,JAYC,38.599216,-86.102726
02400087,Jay C - Sellersburg,7605 Highway 311,Sellersburg,IN,47172,8122464730,JAYC,38.382966,-85.769608
02400090,Jay C Food Plus - Bedford,2631 16th St,Bedford,IN,47421,8122750725,JAYC,38.86217,-86.50863
02400093,Jay C Food Plus - Jay C Seymour East Tipton,1541 E Tipton St,Seymour,IN,47274,8125228556,JAYC,38.959228,-85.864291
02400186,Kroger - Holiday Manor Shopping Center,2219 Holiday Manor Ctr,Louisville,KY,40222,5024256960,KROGER,38.2839231,-85.6306183
02400224,Kroger - Cliftboro Plaza,2200 Brownsboro Rd,Louisville,KY,40206,5028971133,KROGER,38.257894,-85.7042945
02400292,Kroger - Pleasure Ridge Plaza,7509 Terry Rd,Louisville,KY,40258,5029358954,KROGER,38.1425588,-85.8702299
02400300,Kroger - Poplar Hills Dummy Store,4310 Chefs Way,Louisville,KY,40218,9999999999,KROGER,38.183593,-85.678841
02400309,Kroger - Plainview Village,9812 Linn Station Rd,Louisville,KY,40223,5024230943,KROGER,38.2259742,-85.5761691
02400327,Kroger - Broadway,2710 W Broadway,Louisville,KY,40211,5027783346,KROGER,38.2485162,-85.7969256
02400331,Kroger - Laurel Plaza,1805 N Main St,London,KY,40741,6068644311,KROGER,37.1387268,-84.1001766
02400332,Kroger - 3rd Street,4211 S 3Rd St,Louisville,KY,40214,5023683065,KROGER,38.1949668,-85.7645751
02400336,Kroger - Commerce Plaza,2308 Highway 144,Owensboro,KY,42303,2709261433,KROGER,37.7786262,-87.0805567
02400339,Kroger - Highlands Kroger,2440 Bardstown Rd,Louisville,KY,40205,5024599805,KROGER,38.22326,-85.68745
02400346,Kroger - McMahan Plaza,3039 Breckenridge Ln,Louisville,KY,40220,5024526445,KROGER,38.217455,-85.626244
02400347,Kroger - Tates Creek,4101 Tates Creek Centre Dr,Lexington,KY,40517,8592731100,KROGER,37.9705806,-84.4986704
02400350,Kroger - Auburndale,5533 New Cut Rd,Louisville,KY,40214,5023617446,KROGER,38.1445097,-85.7734632
02400352,Kroger - Regency Center,150 W Lowry Ln Ste 190,Lexington,KY,40503,8592786228,KROGER,38.0064996,-84.5217367
02400355,Kroger - Village Square,515 N 12Th St,Middlesboro,KY,40965,6062483410,KROGER,36.613695,-83.7048852
02400356,Kroger - Eastgate SC,12501 Shelbyville Rd,Middletown,KY,40243,5022447957,KROGER,38.245021,-85.520782
02400359,Kroger - Bryan Station,1650 Bryan Station Rd,Lexington,KY,40505,8592935969,KROGER,38.05921,-84.461204
02400360,Kroger - Cedar Springs,6900 Bardstown Rd,Louisville,KY,40291,5022392115,KROGER,38.146193,-85.5879364
02400361,Kroger - Gardenside - Power Alley,1808 Alexandria Dr,Lexington,KY,40504,8592763556,KROGER,38.0375535,-84.550596
02400362,Kroger - Towne Center,111 Towne Dr,Elizabethtown,KY,42701,2707371707,KROGER,37.734737,-85.888467
02400363,Kroger - Harrodsburg Marketplace,844 S College St,Harrodsburg,KY,40330,8597340078,KROGER,37.7461291,-84.8438973
02400366,Kroger - Southgate,5001 Mud Ln,Louisville,KY,40229,5029627744,KROGER,38.0892166,-85.6706097
02400368,Kroger - Franklin Square,1309 US Highway 127 S Ste H,Frankfort,KY,40601,5028750124,KROGER,38.1654418,-84.8953392
02400369,Kroger - Green River Plaza,399 Campbellsville Byp Ste 100,Campbellsville,KY,42718,2704656065,KROGER,37.3413652,-85.3655237
02400371,Kroger - Millpond Center,3650 Boston Rd,Lexington,KY,40514,8592238088,KROGER,37.9790016,-84.5501227
02400376,Kroger - Festival On The Court,4501 Outer Loop,Louisville,KY,40219,5029692855,KROGER,38.1399491,-85.6795056
02400379,Kroger - Stony Brook,9080 Taylorsville Rd,Louisville,KY,40299,5024918805,KROGER,38.212642,-85.591978
02400380,Kroger - Marion Pavillion,1704 W Deyoung St,Marion,IL,62959,6189936330,KROGER,37.7427572,-88.9457042
02400387,Kroger - Woodlawn SC,291 N Hubbards Ln Ste 130,Saint Matthews,KY,40207,5028958332,KROGER,38.2584937,-85.6367782
02400389,Kroger - Prospect Village,5929 Timber Ridge Dr,Prospect,KY,40059,5022922464,KROGER,38.3401873,-85.6213966
02400394,Kroger - Hwy 53,2034 S Highway 53,La Grange,KY,40031,5022220269,KROGER,38.393055,-85.3674363
02400396,Kroger - New Albany Plaza,200 New Albany Plz,New Albany,IN,47150,8129482817,KROGER,38.3052496,-85.8379847
02400397,Kroger - Brighton Park,300 Brighton Park Blvd,Frankfort,KY,40601,5026954860,KROGER,38.1991665,-84.8263297
02400400,Kroger - Poplar Level,4009 Poplar Level Rd,Louisville,KY,40213,5024543914,KROGER,38.2020235,-85.7077707
02400402,Kroger - Bypass Rd Hwy 1958,1661 Bypass Rd,Winchester,KY,40391,8597454959,KROGER,37.994292,-84.2178122
02400407,Kroger Marketplace - Man-O-War,3101 Richmond Rd,Lexington,KY,40509,8592686006,KROGER,38.003241,-84.444936
02400408,Kroger - W John Rowan,102 W John Rowan Blvd,Bardstown,KY,40004,5023482977,KROGER,37.8287354,-85.4644758
02400409,Kroger - London Marketplace,1732 Highway 192 W,London,KY,40741,6068781254,KROGER,37.1068358,-84.0902733
02400411,Kroger - W College Ave,179 W College Ave,Stanton,KY,40380,6066632873,KROGER,37.8443276,-83.8617452
02400502,Kroger - Ballardsville Kroger,10010 Ballardsville Rd,Louisville,KY,40241,5023573500,KROGER,38.3149495,-85.559538
02400563,Kroger - Island Ford Shops,545 Island Ford Rd,Madisonville,KY,42431,2708211059,KROGER,37.3495886,-87.4898361
02400642,Kroger - Shawnee Square,601 N Commercial St,Harrisburg,IL,62946,6182528677,KROGER,37.7456519,-88.5256494
02400660,Kroger - Jackson Square,550 E Industrial Park Rd,Murphysboro,IL,62966,6186873481,KROGER,37.7883258,-89.323662
02400672,Kroger - Anna Plaza,45 Plaza Dr,Anna,IL,62906,6188334519,KROGER,37.463816,-89.2305096
02400687,Kroger - W Frankfort Plaza,10 West Frankfort Plz,W Frankfort,IL,62896,6189374621,KROGER,37.8956537,-88.9494096
02400705,Kroger Marketplace - Richmond Plaza,890 Richmond Plz,Richmond,KY,40475,8596241092,KROGER,37.7313245,-84.2739544
02400707,Kroger - Springhurst,9440 Brownsboro Rd,Louisville,KY,40241,5024258542,KROGER,38.3053948,-85.5751607
02400708,Kroger - Bellerive Plaza,170 Bellerive Blvd,Nicholasville,KY,40356,8592191058,KROGER,37.984358,-84.589651
02400710,Kroger - Hwy 227,2549 Us Highway 227,Carrollton,KY,41008,5027325380,KROGER,38.6576786,-85.1312397
02400711,Kroger - King City Square,415 S 42Nd St,Mount Vernon,IL,62864,6182446210,KROGER,38.3116131,-88.9433448
02400712,Kroger - Indian Mound Dr,810 Indian Mound Dr,Mount Sterling,KY,40353,8594974314,KROGER,38.061095,-83.953677
02400713,Kroger - Kimberly Square,995 S Main St,Nicholasville,KY,40356,8598871201,KROGER,37.8656145,-84.5810068
02400714,Kroger - N Grant City Road,501 N Giant City Rd,Carbondale,IL,62901,6184575313,KROGER,37.731068,-89.182823
02400717,Kroger - Dolphin Hills,3040 Dolphin Dr,Elizabethtown,KY,42701,2707374715,KROGER,37.711977,-85.836152
02400718,Kroger - Starlite Drive,1670 Starlite Dr,Owensboro,KY,42301,2709261607,KROGER,37.7543167,-87.1507249
02400719,Kroger - Forest Hills SC,1019 Cumberland Falls Hwy,Corbin,KY,40701,6065261717,KROGER,36.9282786,-84.1050693
02400721,Kroger - Hartland Parkway,4750 Hartland Pkwy,Lexington,KY,40515,8592732557,KROGER,37.9620466,-84.4796292
02400728,Kroger - Shepherds Crossing,185 Adam Shepherd Pkwy,Shepherdsville,KY,40165,5025437242,KROGER,37.9917289,-85.7107807
02400729,Kroger - Bashford Manor,3616 Buechel Byp,Louisville,KY,40218,5024566522,KROGER,38.1981914,-85.6636624
02400730,Kroger - E Main St,705 E Main St,Lebanon,KY,40033,2706923591,KROGER,37.5768044,-85.2340663
02400733,Kroger - Ridgefield KY,200 Skywatch Dr,Danville,KY,40422,8592363987,KROGER,37.6182779,-84.782804
02400734,Kroger - Trademore Center,300 Kroger CTR,Morehead,KY,40351,6067847529,KROGER,38.1920522,-83.4852587
02400737,Kroger - Chinoe,1060 Chinoe Rd Ste 190,Lexington,KY,40502,8593354706,KROGER,37.9968605,-84.4786723
02400739,Kroger - Shops of Forest Springs,12450 La Grange Rd,Louisville,KY,40245,5022411311,KROGER,38.290685,-85.508474
02400741,Kroger - River Pointe SC,525 E Clifty Dr,Madison,IN,47250,8122735913,KROGER,38.7815374,-85.3789826
02400743,Kroger - Tyler Center,12611 Taylorsville Rd Ste 102,Louisville,KY,40299,5022610251,KROGER,38.1887948,-85.5190563
02400744,Kroger - Silver Run,2864 Charlestown Rd,New Albany,IN,47150,8129447016,KROGER,38.3319483,-85.7980611
02400745,Kroger Marketplace - Kroger Marketplace Stonegate Ctr,50 Stonegate Ctr,Somerset,KY,42501,6066780202,KROGER,37.05772,-84.626986
02400746,Kroger - S Park Ave,1609 S Park Ave,Herrin,IL,62948,6189424954,KROGER,37.7883833,-89.0295537
02400752,Kroger - Central Station,3165 S 2Nd St,Louisville,KY,40208,5023686075,KROGER,38.2025911,-85.7613734
02400753,Kroger - Germantown Square SC,1265 Goss Ave,Louisville,KY,40217,5026340724,KROGER,38.226478,-85.730608
02400757,Kroger - Tradewinds SC,181 S Highway 27,Somerset,KY,42501,6066785147,KROGER,37.0908091,-84.619284
02400758,Kroger - Eastbrooke Pkwy,234 Eastbrooke Pkwy,Mount Washington,KY,40047,5025381240,KROGER,38.0566759,-85.5369129
02400760,Kroger - Parkway SC,14889 N Us Highway 25 E,Corbin,KY,40701,6065288630,KROGER,36.9592084,-84.0752841
02400762,Kroger - Clark Station,305 E Lewis And Clark Pkwy,Clarksville,IN,47129,8129481728,KROGER,38.310988,-85.7704604
02400763,Kroger - N 35th St,520 N 35Th St,Louisville,KY,40212,5027763713,KROGER,38.2703515,-85.805585
02400764,Kroger - Westport Plaza,9501 Westport Rd,Louisville,KY,40241,5024250065,KROGER,38.2883838,-85.5745714
02400766,Kroger - Brannon Crossing,200 E Brannon Rd,Nicholasville,KY,40356,8599714300,KROGER,37.9545949,-84.5362087
02400767,Kroger Marketplace - Beaumont Centre,3175 Beaumont Centre Cir,Lexington,KY,40513,8592191091,KROGER,38.0228609,-84.5592469
02400768,Kroger - Meadowthorpe SC,1600 Leestown Rd,Lexington,KY,40511,8592590933,KROGER,38.0653327,-84.5271941
02400770,Kroger - Wesleyan Park Plaza,2630 Frederica St,Owensboro,KY,42301,2706849411,KROGER,37.7502708,-87.1138636
02400774,Kroger Marketplace - Versailles Marketplace,212 Kroger Way,Versailles,KY,40383,8598737704,KROGER,38.052959,-84.711332
02400776,Kroger Marketplace - Kroger Jeffersonville Commons,1027 Jeffersonville Commons Dr,Jeffersonville,IN,47130,8122835222,KROGER,38.335005,-85.712037
02400777,Kroger Marketplace - Hi-Point SC,311 Boone Station Rd,Shelbyville,KY,40065,5026331625,KROGER,38.2157434,-85.2063739
02400779,Kroger Marketplace - Marketplace Circle,106 Market Place Cir,Georgetown,KY,40324,5028634807,KROGER,38.186407,-84.568318
02400780,Kroger - Valley Commons,10645 Dixie Hwy,Louisville,KY,40272,5029375205,KROGER,38.098672,-85.8696973
02400784,Kroger - Lexington,704 Euclid Ave,Lexington,KY,40502,8596873260,KROGER,38.0306743,-84.4929085
02400785,Kroger Marketplace - Kroger Marketplace Dixie Hwy,4915A Dixie Hwy,Louisville,KY,40216,5024488215,KROGER,38.167742,-85.826118
02400794,Kroger - Kroger Buckner,2835 S Highway 393,LaGrange,KY,40031,5025304803,KROGER,38.3804931,-85.4270019
02400808,Kroger - Harrodsburg Fuel,4225 Harrodsburg Rd,Lexington,KY,40513,8592864379,KROGER,37.9986829,-84.5799526
02400873,Kroger - Copper Creek SC,100 Copper Creek Dr,Powderly,KY,42367,2703386661,KROGER,37.2329598,-87.1609475
02400900,Kroger - Northridge,181 S Highway 127,Russell Springs,KY,42642,2702167007,KROGER,37.0636421,-85.0716963
02400903,Kroger - Riverridge Plaza,568 Bypass Rd,Brandenburg,KY,40108,2704225464,KROGER,37.9821953,-86.1628622
02400913,Kroger - Anderson Crossing,1300 Anderson Crossing Dr,Lawrenceburg,KY,40342,5028590234,KROGER,38.0170723,-84.9102055
02400915,Kroger - E St Louis St,456 E Saint Louis St,Nashville,IL,62263,6183273413,KROGER,38.3430413,-89.3793193
02400916,Kroger - Kroger Whitley City,1187 N Highway 27,Whitley City,KY,42653,6065882000,KROGER,36.7392776,-84.4739834
02400993,Kroger - Loyalty Fulfillment Louisville,4325 Robards Ln,Louisville,KY,40218,9999999999,KROGER,38.19714,-85.690893
02500250,Kroger - Hannan Plaza,501 Lone Oak Rd,Paducah,KY,42003,2704438806,KROGER,37.0630583,-88.6408623
02500338,Kroger - Paducah - Southside,3275 Irvin Cobb Dr,Paducah,KY,42003,2704422043,KROGER,37.0513042,-88.5701865
02500339,Kroger - Kirby Woods,6660 Poplar Ave,Memphis,TN,38138,9017540354,KROGER,35.1004283,-89.8410286
02500345,Kroger - Jacksonian Plaza,4910 I 55 N,Jackson,MS,39211,6013661141,KROGER,32.3638105,-90.1478631
02500355,Kroger - Laurel,2340 Highway 15 N,Laurel,MS,39440,6014266044,KROGER,31.7193413,-89.1505767
02500363,Kroger - Pearl,201 Lonnie T Jenkins Dr,Pearl,MS,39208,6019322325,KROGER,32.284337,-90.11687
02500370,Kroger - Cleveland,602 N Davis Ave,Cleveland,MS,38732,6628469201,KROGER,33.7523782,-90.7138832
02500377,Kroger Fuel Center - Clinton Fuel,462 Springridge Rd,Clinton,MS,39056,6019242374,KROGER,32.329869,-90.326571
02500381,Kroger - Starkville,826 Highway 12 W,Starkville,MS,39759,6623248032,KROGER,33.449593,-88.84256
02500386,Kroger - Poplar Bluff,2770 N Westwood Blvd,Poplar Bluff,MO,63901,5736866970,KROGER,36.7864192,-90.4286469
02500387,Kroger - Collierville - New Byhalia,240 New Byhalia Rd,Collierville,TN,38017,9018531330,KROGER,35.0475701,-89.6870714
02500388,Kroger - Brandon,1811 W Government St,Brandon,MS,39042,6018253696,KROGER,32.2853568,-90.0375404
02500391,Kroger - Paris,1059 Mineral Wells Ave,Paris,TN,38242,7316441075,KROGER,36.2876885,-88.3081471
02500392,Kroger - Dyersburg,2525 Lake Rd,Dyersburg,TN,38024,7312850380,KROGER,36.0632241,-89.3972485
02500393,Kroger - Millington,8039 US Highway 51 N,Millington,TN,38053,9018726741,KROGER,35.3465066,-89.9069324
02500398,Kroger - Lynwood Place,941 N Parkway,Jackson,TN,38305,7314234839,KROGER,35.6520378,-88.8273288
02500401,Kroger - Gleneagles,4770 Riverdale Rd,Memphis,TN,38141,9017567291,KROGER,35.0184403,-89.8290087
02500402,Kroger - Union Ave,1759 Union Ave,Memphis,TN,38104,9012728630,KROGER,35.1352501,-90.0036334
02500404,Kroger - Stateline Rd,465 Stateline Rd W,Southaven,MS,38671,6623932675,KROGER,34.99027,-89.9974562
02500405,Kroger - Bartlett Towne Center,5995 Stage Rd,Bartlett,TN,38134,9013857090,KROGER,35.2023584,-89.8628405
02500409,Kroger Marketplace - Jonesboro Marketplace,1725 S Caraway Rd,Jonesboro,AR,72401,8709729990,KROGER,35.823776,-90.679944
02500410,Kroger - Trinity,676 N Germantown Pkwy,Cordova,TN,38018,9017568908,KROGER,35.1434069,-89.7928789
02500414,Kroger - Park Ave,3141 Park Ave,Paducah,KY,42001,2704440596,KROGER,37.0857824,-88.6464939
02500415,Kroger - Poplar Cleveland,1366 Poplar Ave,Memphis,TN,38104,9012727881,KROGER,35.145316,-90.0147766
02500419,Kroger - Germantown - Farmington,7735 Farmington Blvd,Germantown,TN,38138,9017583400,KROGER,35.09418,-89.80549
02500425,Kroger - Frayser,2632 Frayser Blvd,Memphis,TN,38127,9013538281,KROGER,35.2226893,-89.9767774
02500426,Kroger - Dexter - Cordova,1675 N Germantown Pkwy,Cordova,TN,38016,9016241338,KROGER,35.170857,-89.7953846
02500427,Kroger - Columbus,1829 Highway 45 N,Columbus,MS,39705,6623271140,KROGER,33.5169277,-88.4364069
02500429,Kroger - Greenville,1778 Highway 1 S,Greenville,MS,38701,6623328895,KROGER,33.3698221,-91.0379707
02500430,Kroger - Mendenhall Sanderlin,540 S Mendenhall Rd,Memphis,TN,38117,9016838846,KROGER,35.1164026,-89.8942599
02500433,Kroger - Atoka,11630 Highway 51 S,Atoka,TN,38004,9018375000,KROGER,35.4407111,-89.7906539
02500434,Kroger - Batesville MS,110 Keating Rd,Batesville,MS,38606,6625789917,KROGER,34.3111181,-89.9282841
02500435,Kroger - Murray,808 N 12Th St,Murray,KY,42071,2707593021,KROGER,36.6250487,-88.3128289
02500437,Kroger - Winchester Hacks,7942 Winchester Rd,Memphis,TN,38125,9017583609,KROGER,35.0500753,-89.7980517
02500438,Kroger - Raleigh,3860 Austin Peay Hwy,Memphis,TN,38128,9013834841,KROGER,35.2311122,-89.8953313
02500439,Kroger - Summer Avenue,4264 Summer Ave,Memphis,TN,38122,9017631556,KROGER,35.1504701,-89.9184469
02500440,Kroger - Stonebridge Crossing SC,9025 US Highway 64,Lakeland,TN,38002,9013819065,KROGER,35.2026087,-89.7620749
02500447,Kroger - Barnes Crossing,930 Barnes Crossing Rd,Tupelo,MS,38804,6628445206,KROGER,34.3177045,-88.7034397
02500448,Kroger - West Towne Commons,41 Stonebrook Pl,Jackson,TN,38305,7316610910,KROGER,35.6884295,-88.8582965
02500449,Kroger - Richland,1167 Highway 49 S,Richland,MS,39218,6016640120,KROGER,32.2163394,-90.1553684
02500451,Kroger - Kirby Quince,2835 Kirby Rd,Memphis,TN,38119,9013531822,KROGER,35.0717736,-89.8444667
02500452,Kroger - Olive Branch,7427 Goodman Rd,Olive Branch,MS,38654,6628951460,KROGER,34.9602294,-89.8577036
02500453,Kroger - Horn Lake - I-55,7251 Interstate Dr,Horn Lake,MS,38637,6623498334,KROGER,34.9643289,-90.0056652
02500454,Kroger - Corinth,104 Highway 72 W,Corinth,MS,38834,6622878155,KROGER,34.9282297,-88.5243447
02500456,Kroger - Summer Appling,7615 Us Highway 70,Bartlett,TN,38133,9017583622,KROGER,35.229631,-89.808114
02500457,Kroger - Houston Levee Macon,1230 N Houston Levee Rd,Cordova,TN,38018,9017511840,KROGER,35.158957,-89.7256573
02500462,Kroger - Oakland,7265 Highway 64,Oakland,TN,38060,9014650681,KROGER,35.2311387,-89.514115
02500463,Kroger - Arlington Fuel,11635 Highway 70,Arlington,TN,38002,9012909280,KROGER,35.2928907,-89.6739317
02500464,Kroger - Goodman Getwell,3095 Goodman Rd E,Southaven,MS,38672,6625363741,KROGER,34.960895,-89.93502
02500465,Kroger - Blytheville,400 W Moultrie Dr,Blytheville,AR,72315,8707637524,KROGER,35.9371785,-89.9069518
02500466,Kroger - Pemberton Sq,3408 Pemberton Square Blvd,Vicksburg,MS,39180,6016304000,KROGER,32.3149988,-90.8820346
02500468,Kroger - University Commons,35 W University Pkwy,Jackson,TN,38305,7316607106,KROGER,35.697373,-88.831186
02500469,Kroger - W Memphis,300 S Service Rd,West Memphis,AR,72301,8707322692,KROGER,35.167868,-90.191514
02500471,Kroger - Tupelo - Main St,960 W Main St,Tupelo,MS,38801,6628408448,KROGER,34.2580985,-88.7189806
02500472,Kroger - Colony Crossing,115 Colony Crossing Way,Madison,MS,39110,6016055020,KROGER,32.4748841,-90.1419176
02500473,Kroger - Oxford,2013 University Ave,Oxford,MS,38655,6622369956,KROGER,34.3635217,-89.5036823
02500474,Kroger - Clinton,107 Highway 80 E,Clinton,MS,39056,6019256340,KROGER,32.3348431,-90.3253719
02500478,Kroger Marketplace - Kroger Marketplace Mount Pleasant Hernando MS,2380 Mount Pleasant Rd,Hernando,MS,38632,6624290355,KROGER,34.8264396,-89.9818101
02500479,Kroger - Dogwood Promenade,110 Promenade Blvd,Flowood,MS,39232,6017182230,KROGER,32.3423425,-90.0637235
02500481,Kroger - Houston Levee - Collierville,3685 S Houston Levee Rd,Collierville,TN,38017,9018542705,KROGER,35.0479573,-89.7358832
02500483,Kroger Marketplace - Kroger Arlington,5270 Airline Rd,Arlington,TN,38002,9017422838,KROGER,35.269872,-89.6660288
02500484,Kroger - Savannah,775 Pickwick St,Savannah,TN,38372,7319259700,KROGER,35.2165381,-88.2440677
02500486,Kroger - Whitehaven,1212 E Shelby Dr,Memphis,TN,38116,9013468606,KROGER,35.0226866,-90.0234125
02500488,Kroger - Poplar Plaza,3444 Plaza Ave,Memphis,TN,38111,9013230191,KROGER,35.130589,-89.947924
02500489,Kroger - Kirby Whitten,2942 Kirby Whitten Rd,Bartlett,TN,38134,9013869595,KROGER,35.2067231,-89.8380774
02500490,Kroger - Byram,6745 S Siwell Rd,Byram,MS,39272,6018632001,KROGER,32.2041633,-90.297341
02500491,Kroger - Truse Pkwy,799 Truse Pkwy,Memphis,TN,38117,9016822989,KROGER,35.1098894,-89.8941685
02500492,Kroger - Madison,1070 Highway 51,Madison,MS,39110,6018532410,KROGER,32.4637475,-90.1081963
02500493,Kroger - Spillway,1070 Spillway Cir,Brandon,MS,39047,6018290740,KROGER,32.38348,-90.0392812
02500494,Kroger - Old Canton Ridgeland,7045 Old Canton Rd,Ridgeland,MS,39157,6018563442,KROGER,32.4159654,-90.1069897
02500497,Kroger - Flowood East,143 Friendly and Fresh Dr,Flowood,MS,39232,6019927552,KROGER,32.3556064,-90.0138273
02500499,Kroger - Goodman Rd and Horn Lake,3926 Goodman Rd W,Horn Lake,MS,38637,6623932213,KROGER,34.9644748,-90.0594804
02500550,Kroger - E Roosevelt,1100 E Roosevelt Rd,Little Rock,AR,72206,5013750585,KROGER,34.7248922,-92.2609776
02500582,Kroger - Colony West,10300 N Rodney Parham Rd,Little Rock,AR,72227,5012276364,KROGER,34.7683326,-92.3879841
02500590,Kroger - Hot Springs - Central,3341 Central Ave,Hot Springs,AR,71913,5016240259,KROGER,34.4738846,-93.0591943
02500606,Kroger - Maumelle,110 Commons Dr,Maumelle,AR,72113,5012107670,KROGER,34.8478559,-92.4084377
02500613,Kroger - Cabot,1295 W Main St,Cabot,AR,72023,5016285185,KROGER,34.9752199,-92.028805
02500614,Kroger - Jacksonville,103 Gregory Pl,Jacksonville,AR,72076,5019820151,KROGER,34.8791531,-92.1101049
02500619,Kroger - Hot Springs - Airport,215 Airport Rd,Hot Springs,AR,71913,5016233340,KROGER,34.4882784,-93.087213
02500621,Kroger - Hot Springs - Mall,4407 Central Ave,Hot Springs,AR,71913,5015257083,KROGER,34.4503642,-93.0744193
02500622,Kroger Marketplace - Cantrell Marketplace,14000 Cantrell Rd,Little Rock,AR,72223,5012254588,KROGER,34.804101,-92.428925
02500623,Kroger Marketplace - Chenal Marketplace,16105 Chenal Pkwy Ste B,Little Rock,AR,72223,5012177910,KROGER,34.7561924,-92.4490834
02500624,Kroger - Russellville,1109 W Main St,Russellville,AR,72801,4798903400,KROGER,35.2795664,-93.1435668
02500625,Kroger Marketplace - Conway Marketplace,855 Salem Rd,Conway,AR,72034,5013293628,KROGER,35.089251,-92.4723198
02500627,Kroger - Geyer Springs,8824 Geyer Springs Rd,Little Rock,AR,72209,5015682330,KROGER,34.6700644,-92.3458356
02500629,Kroger Marketplace - Benton Marketplace,20820 Interstate 30 N,Benton,AR,72019,5015743880,KROGER,34.61071,-92.53078
02500630,Kroger - Markham,8415 W Markham St,Little Rock,AR,72205,5012277262,KROGER,34.7518831,-92.3682139
02500636,Kroger - Hillcrest,614 Beechwood St,Little Rock,AR,72205,5016660102,KROGER,34.7567667,-92.3248647
02500637,Kroger - Benton - Military Rd,1410 Military Rd,Benton,AR,72015,5017760301,KROGER,34.578061,-92.5776107
02500638,Kroger - Camp Robinson,4401 Camp Robinson Rd,North Little Rock,AR,72118,5017586858,KROGER,34.7950808,-92.2729244
02500639,Kroger - McCain,2509 Mccain Blvd,North Little Rock,AR,72116,5017588660,KROGER,34.7978933,-92.235763
02500642,Kroger - Indian Hills,6929 John F Kennedy Blvd,North Little Rock,AR,72116,5018350400,KROGER,34.8195081,-92.2386516
02500644,Kroger - The Heights,1900 N Polk St,Little Rock,AR,72207,5016634748,KROGER,34.7695589,-92.33521
02500652,Kroger - Conway - Oak St,101 Oak St,Conway,AR,72032,5013298009,KROGER,35.0904062,-92.4284337
02500687,Kroger - Batesville AR,303 S Saint Louis St,Batesville,AR,72501,8707932143,KROGER,35.7761297,-91.639709
02600041,Kroger Fuel Center - Kroger Fuel Center,123 Northcreek Blvd Ste G,Goodlettsville,TN,37072,6158596059,KROGER,36.326502,-86.699876
02600093,Kroger Pharmacy - Metro Nashville Public Schools Employee Drive Thru Clinics,2694 Fessey Court,Nashville,TN,37204,6156003854,KROGER,36.12117,-86.7682345
02600502,Kroger - Monroe,800 Monroe St,Nashville,TN,37208,6152566506,KROGER,36.175869,-86.794258
02600503,Kroger - Decherd SC,1840 Decherd Blvd,Decherd,TN,37324,9319671203,KROGER,35.2047324,-86.0916013
